     3.03           OBSERVATION DATA    M                   RINEX VERSION / TYPE
BNC 2.12.6          rtproc              20171231 235945 UTC PGM / RUN BY / DATE
PORTIONS OF THIS HEADER GENERATED BY BKG AT 21-Dec-17 11:51 COMMENT
FROM SITELOG abmf_20170809.log                              COMMENT
OBS TYPES from mgex.igs-ip.net/ABMF7                        COMMENT
RTCM_3 mgex.igs-ip.net/ABMF7                                COMMENT
ABMF                                                        MARKER NAME
97103M001                                                   MARKER NUMBER
                                                            MARKER TYPE
                    IGN-SGN                                 OBSERVER / AGENCY
1830399             LEICA GR25          4.11                REC # / TYPE / VERS
1441112501          TRM57971.00     NONE                    ANT # / TYPE
  2919786.0000 -5383745.0000  1774604.0000                  APPROX POSITION XYZ
        0.0000        0.0000        0.0000                  ANTENNA: DELTA H/E/N
E   16 C1C L1C D1C S1C C7Q L7Q D7Q S7Q C8Q L8Q D8Q S8Q C5Q  SYS / # / OBS TYPES
       L5Q D5Q S5Q                                          SYS / # / OBS TYPES
G   12 C1C L1C D1C S1C C2W L2W D2W S2W C5Q L5Q D5Q S5Q      SYS / # / OBS TYPES
R    8 C1C L1C D1C S1C C2P L2P D2P S2P                      SYS / # / OBS TYPES
S    4 C1C L1C D1C S1C                                      SYS / # / OBS TYPES
  2018     1     1     0     0    0.0000000     GPS         TIME OF FIRST OBS
E L1C  0.00000                                              SYS / PHASE SHIFT
E L7Q  0.00000                                              SYS / PHASE SHIFT
E L8Q  0.00000                                              SYS / PHASE SHIFT
E L5Q  0.00000                                              SYS / PHASE SHIFT
G L1C  0.00000                                              SYS / PHASE SHIFT
G L2W  0.00000                                              SYS / PHASE SHIFT
G L5Q  0.00000                                              SYS / PHASE SHIFT
R L1C  0.00000                                              SYS / PHASE SHIFT
R L2P  0.00000                                              SYS / PHASE SHIFT
S L1C  0.00000                                              SYS / PHASE SHIFT
                                                            GLONASS COD/PHS/BIS
  0                                                         GLONASS SLOT / FRQ #
                                                            END OF HEADER
> 2018 01 01 00 00  0.0000000  0 29
G03  24424219.520   128349744.306       -1249.615          39.562    24424216.680   100012906.962        -973.728          36.875    24424217.220    95845960.367        -933.375          46.875
G08  21780789.300   114459483.932        2714.857          47.562    21780785.640    89188891.627        2115.474          43.688    21780786.200    85472175.529        2027.261          51.625
G09  24877255.760   130731137.341        3212.797          40.562    24877252.820   101868418.577        2503.480          37.625    24877254.500    97623534.503        2399.121          46.938
G14  22784162.540   119731026.687       -3307.840          43.375    22784156.440    93296905.044       -2577.537          37.562
G16  21423701.360   112581890.145       -1280.583          48.125    21423694.080    87726155.928        -997.856          44.000
G21  25447396.700   133727090.457        -915.487          42.000    25447388.020   104203349.340        -713.367          28.688
G22  24252339.560   127447049.052       -1181.942          42.875    24252330.700    99309463.762        -920.994          36.750
G23  22351773.440   117459230.459        2407.587          48.000    22351764.320    91527053.571        1876.042          41.000
G26  22664221.400   119102095.004       -1716.766          47.125    22664218.060    92805872.688       -1337.740          41.500    22664218.760    88939359.536       -1282.028          50.438
G27  19991202.540   105055230.534         613.689          49.938    19991197.720    81861012.231         478.200          49.750    19991198.720    78449704.501         458.175          52.812
G31  22492168.800   118197677.057        -819.597          48.938    22492161.160    92102122.800        -638.647          41.688
G32                                                                                                                                  25126596.680    98602322.068       -2712.723          45.125
R01  22669633.020   121181644.258       -3463.126          42.188    22669634.960    94252394.344       -2693.544          36.688
R02  21341595.580   113883388.513       -1212.817          47.500    21341595.880    88575540.080        -943.302          45.188
R03  23548152.820   126054526.754        1683.251          40.562    23548150.140    98042409.959        1309.196          39.688
R11  22639041.680   120977081.790        -441.261          43.125    22639042.560    94093318.872        -343.203          41.312
R12  21735587.080   116107603.094         684.724          43.750
R13  23833544.980   127269299.011        1436.845          37.625    23833546.020    98987261.357        1117.547          28.938
R21  23406312.800   125252192.998       -3370.904          39.875    23406311.100    97418212.970       -2621.817          41.000
R22  20020858.960   106873349.230        -226.579          49.375    20020858.880    83123740.112        -176.227          48.688
R23  21031676.580   112505507.541        3617.982          47.750    21031677.480    87503630.294        2813.985          41.125
E02  25136733.540   132093857.060          28.184          50.375    25136730.700   101214793.844          21.542          52.312    25136732.000    99928298.313          21.274          48.875    25136732.380    98641538.776          21.007          50.625
E03  25526455.140   134143093.059       -2402.243          49.875    25526453.960   102784929.984       -1840.688          51.875    25526454.800   101478298.332       -1817.299          47.625    25526455.360   100171710.678       -1793.978          49.125
E07  27539434.420   144720103.964        1345.348          44.375    27539431.300   110889823.929        1030.720          48.625    27539432.860   109479719.157        1017.601          42.750    27539436.120   108070339.373        1004.578          44.625
E08  22909372.780   120390084.201        -717.561          51.125    22909369.240    92246952.101        -549.942          52.562    22909370.340    91074490.985        -542.908          49.125    22909370.760    89901691.872        -535.899          50.500
E30  24654924.780   129562002.075         653.394          48.188    24654922.880    99275176.627         500.600          50.688    24654923.500    98013211.657         494.281          45.625    24654924.440    96751234.691         487.872          47.188
S20  38226594.240   200882591.677          39.106          42.500
S35  40665704.320   213699147.227          -3.864          40.125
S38  38181658.760   200646405.170          -1.374          46.500
> 2018 01 01 00 00  1.0000000  0 29
G03  24424457.320   128350994.032       -1249.355          39.625    24424454.520   100013880.777        -973.526          37.875    24424455.020    95846893.598        -933.114          46.875
G08  21780272.700   114456769.184        2714.826          47.562    21780269.060    89186776.240        2115.450          43.250    21780269.580    85470148.279        2027.232          51.562
G09  24876644.400   130727924.567        3212.775          40.625    24876641.440   101865915.125        2503.466          35.375    24876643.140    97621135.352        2399.244          46.938
G14  22784792.000   119734334.587       -3307.600          43.375    22784785.920    93299482.634       -2577.350          38.125
G16  21423945.020   112583170.616       -1280.321          48.062    21423937.760    87727153.696        -997.652          44.000
G21  25447570.940   133728005.989        -915.535          41.812    25447562.260   104204062.760        -713.402          31.312
G22  24252564.480   127448230.923       -1181.640          43.062    24252555.580    99310384.698        -920.761          36.750
G23  22351315.320   117456823.045        2407.436          47.938    22351306.200    91525177.662        1875.925          41.500
G26  22664548.060   119103811.572       -1716.191          47.062    22664544.700    92807210.278       -1337.290          41.375    22664545.420    88940641.391       -1281.607          50.375
G27  19991085.800   105054617.092         613.388          49.875    19991080.980    81860534.227         477.965          49.438    19991081.980    78449246.410         458.003          52.750
G31  22492324.760   118198496.614        -819.418          48.875    22492317.120    92102761.418        -638.507          41.750
G32  25127286.240   132044720.354       -3631.731          40.938    25127286.480   102891781.240       -2829.921          39.750    25127288.300    98605034.304       -2712.051          49.125
R01  22670280.800   121185107.034       -3462.456          42.250    22670282.740    94255087.615       -2693.023          36.938
R02  21341822.880   113884601.416       -1213.011          47.500    21341823.180    88576483.447        -943.453          45.188
R03  23547838.360   126052843.553        1683.040          40.625    23547835.720    98041100.801        1309.032          39.688
R11  22639124.240   120977523.045        -441.072          43.312    22639125.140    94093662.069        -343.057          41.250
R12  21735458.860   116106918.192         685.077          43.625
R13  23833275.840   127267861.850        1437.723          37.875    23833276.840    98986143.564        1118.228          29.188
R21  23406942.760   125255563.990       -3371.045          39.750    23406941.060    97420834.855       -2621.926          40.875
R22  20020901.440   106873576.087        -227.037          49.375    20020901.380    83123916.559        -176.584          48.625
R23  21031000.280   112501889.664        3617.872          47.688    21031001.140    87500816.392        2813.900          40.875
E02  25136728.160   132093828.708          28.583          50.438    25136725.320   101214772.121          21.932          52.312    25136726.600    99928276.864          21.678          48.875    25136727.000    98641517.612          21.350          50.625
E03  25526912.240   134145495.115       -2401.879          49.875    25526911.060   102786770.516       -1840.359          51.875    25526911.880   101480115.466       -1816.901          47.688    25526912.440   100173504.413       -1793.577          49.188
E07  27539178.420   144718758.774        1345.309          44.188    27539175.380   110888793.204        1030.698          48.625    27539176.880   109478701.542        1017.528          42.625    27539180.140   108069334.853        1004.622          44.562
E08  22909509.360   120390801.906        -717.585          51.125    22909505.820    92247502.028        -549.888          52.562    22909506.920    91075033.925        -542.876          49.188    22909507.320    89902227.819        -535.897          50.500
E30  24654800.420   129561348.475         653.978          48.125    24654798.500    99274675.822         500.998          50.688    24654799.120    98012717.222         494.614          45.625    24654800.060    96750746.618         488.194          47.188
S20  38226586.620   200882552.622          39.032          42.312
S35  40665705.060   213699151.113          -3.543          40.250
S38  38181659.020   200646406.350           -.802          46.625
> 2018 01 01 00 00  2.0000000  0 29
G03  24424695.100   128352243.588       -1249.285          39.562    24424692.400   100014854.453        -973.470          38.875    24424692.780    95847826.723        -933.223          47.000
G08  21779756.120   114454054.622        2714.401          47.562    21779752.500    89184660.997        2115.118          43.875    21779753.000    85468121.163        2027.047          51.625
G09  24876033.020   130724711.775        3212.576          40.812    24876030.080   101863411.650        2503.308          35.250    24876031.780    97618736.191        2399.082          47.000
G14  22785421.460   119737642.522       -3308.007          43.375    22785415.380    93302060.243       -2577.667          37.500
G16  21424188.660   112584450.958       -1280.261          48.188    21424181.420    87728151.370        -997.604          43.750
G21  25447745.200   133728921.647        -915.871          41.812    25447736.620   104204776.276        -713.660          29.625
G22  24252789.320   127449412.496       -1181.416          43.125    24252780.380    99311305.401        -920.586          35.750
G23  22350857.240   117454415.864        2407.071          47.938    22350848.140    91523301.940        1875.641          41.438
G26  22664874.660   119105527.853       -1716.103          47.125    22664871.300    92808547.642       -1337.222          41.688    22664872.020    88941923.027       -1281.530          50.438
G27  19990969.160   105054004.108         612.682          49.938    19990964.340    81860056.579         477.416          49.625    19990965.340    78448788.656         457.540          52.812
G31  22492480.720   118199316.194        -819.585          48.938    22492473.080    92103400.053        -638.637          41.625
G32  25127977.780   132048351.951       -3631.762          41.688    25127977.580   102894611.052       -2829.944          28.125    25127979.360    98607746.575       -2711.555          39.062
R01  22670928.500   121188569.549       -3462.406          42.000    22670930.460    94257780.682       -2692.983          36.688
R02  21342050.260   113885814.683       -1213.485          47.375    21342050.520    88577427.100        -943.822          45.125
R03  23547524.020   126051160.773        1682.417          40.625    23547521.380    98039791.972        1308.547          39.875
R11  22639206.820   120977964.127        -440.995          43.125    22639207.660    94094005.135        -342.996          41.250
R12  21735330.560   116106232.943         685.239          43.562
R13  23833006.700   127266424.291        1437.925          37.750    23833007.580    98985025.463        1118.385          29.875
R21  23407572.700   125258935.245       -3371.423          39.375    23407571.080    97423456.946       -2622.219          40.875
R22  20020944.060   106873803.608        -227.893          49.312    20020944.000    83124093.520        -177.250          48.750
R23  21030323.980   112498271.931        3617.561          47.625    21030324.840    87498002.601        2813.659          41.188
E02  25136722.700   132093800.013          28.726          50.438    25136719.840   101214750.131          22.117          52.375    25136721.140    99928255.156          21.833          48.875    25136721.560    98641496.173          21.551          50.625
E03  25527369.300   134147897.019       -2401.877          49.875    25527368.120   102788610.936       -1840.333          51.875    25527368.960   101481932.492       -1816.983          47.688    25527369.500   100175298.040       -1793.470          49.188
E07  27538922.420   144717413.727        1344.822          44.125    27538919.480   110887762.569        1030.570          48.750    27538920.920   109477684.004        1017.481          42.812    27538924.180   108068330.428        1004.353          44.500
E08  22909645.960   120391519.746        -717.925          51.125    22909642.420    92248052.057        -550.093          52.625    22909643.520    91075576.967        -543.129          49.188    22909643.900    89902763.869        -536.140          50.500
E30  24654676.000   129560694.570         654.075          48.125    24654674.080    99274174.769         501.190          50.688    24654674.680    98012222.540         494.772          45.625    24654675.600    96750258.303         488.387          47.312
S20  38226579.380   200882513.529          39.305          42.375
S35  40665705.760   213699154.742          -3.234          40.500
S38  38181659.200   200646407.304           -.836          46.562
> 2018 01 01 00 00  3.0000000  0 29
G03  24424932.840   128353492.986       -1249.063          38.938    24424930.180   100015828.018        -973.296          38.250    24424930.500    95848759.705        -932.922          46.938
G08  21779239.580   114451340.246        2714.402          47.375    21779235.960    89182545.895        2115.119          43.375    21779236.460    85466094.196        2026.995          51.625
G09  24875421.660   130721498.948        3212.608          41.062    24875418.740   101860908.141        2503.331          36.000    24875420.420    97616337.001        2399.272          47.125
G14  22786050.940   119740950.467       -3307.720          43.562    22786044.860    93304637.866       -2577.443          37.375
G16  21424432.280   112585731.163       -1280.009          48.125    21424425.040    87729148.934        -997.408          43.875
G21  25447919.480   133729837.426        -915.728          41.812    25447910.940   104205489.862        -713.552          30.188
G22  24253014.120   127450593.771       -1181.077          43.250    24253005.160    99312225.870        -920.321          35.875
G23  22350399.200   117452008.894        2406.946          47.938    22350390.100    91521426.382        1875.543          41.500
G26  22665201.200   119107243.825       -1715.663          47.250    22665197.840    92809884.764       -1336.880          41.000    22665198.540    88943204.425       -1281.156          50.375
G27  19990852.580   105053391.524         612.438          50.000    19990847.760    81859579.238         477.225          49.625    19990848.780    78448331.206         457.375          52.812
G31  22492636.680   118200135.785        -819.511          49.000    22492629.060    92104038.695        -638.579          41.625
G32  25128669.580   132051983.720       -3631.488          39.625    25128667.320   102897441.134       -2829.731          35.812    25128670.520    98610458.158       -2711.673          46.875
R01  22671576.160   121192031.789       -3461.903          41.938    22671578.140    94260473.533       -2692.593          37.125
R02  21342277.700   113887028.303       -1213.795          47.312    21342277.940    88578371.028        -944.063          45.062
R03  23547209.800   126049478.370        1682.343          40.562    23547207.100    98038483.438        1308.490          39.625
R11  22639289.300   120978404.950        -440.696          42.938    22639290.140    94094347.999        -342.763          41.125
R12  21735202.200   116105547.313         685.936          43.625
R13  23832737.360   127264986.239        1438.330          37.562    23832738.220    98983906.975        1118.701          28.875
R21  23408202.740   125262306.702       -3371.348          38.875    23408201.120    97426079.195       -2622.159          41.125
R22  20020986.800   106874031.765        -228.403          49.312    20020986.740    83124270.976        -177.646          48.688
R23  21029647.740   112494654.327        3617.624          47.562    21029648.580    87495188.911        2813.709          41.188
E02  25136717.160   132093770.953          29.317          50.500    25136714.320   101214727.866          22.510          52.312    25136715.600    99928233.170          22.226          48.875    25136716.040    98641474.476          21.890          50.625
E03  25527826.340   134150298.735       -2401.413          49.875    25527825.160   102790451.216       -1840.074          51.875    25527825.980   101483749.379       -1816.668          47.625    25527826.520   100177091.541       -1793.354          49.188
E07  27538666.440   144716068.766        1344.914          44.062    27538663.600   110886732.021        1030.614          48.688    27538665.000   109476666.557        1017.532          42.688    27538668.240   108067326.079        1004.398          44.312
E08  22909782.580   120392237.697        -717.830          51.250    22909779.040    92248602.178        -550.055          52.562    22909780.140    91076120.090        -543.085          49.125    22909780.520    89903300.001        -536.122          50.500
E30  24654551.500   129560040.311         654.436          48.125    24654549.580    99273673.451         501.518          50.688    24654550.180    98011727.590         495.177          45.625    24654551.100    96749769.719         488.842          47.312
S20  38226571.660   200882474.251          39.405          42.625
S35  40665706.400   213699158.102          -3.209          40.312
S38  38181659.360   200646408.084           -.610          46.375
> 2018 01 01 00 00  4.0000000  0 29
G03  24425170.560   128354742.118       -1249.086          39.375    24425167.880   100016801.357        -973.316          38.562    24425168.180    95849692.497        -932.917          47.062
G08  21778723.040   114448625.952        2714.033          47.375    21778719.460    89180430.862        2114.832          43.500    21778719.940    85464067.292        2026.703          51.562
G09  24874810.260   130718285.978        3212.804          41.000    24874807.340   101858404.527        2503.485          36.750    24874809.020    97613937.720        2399.101          47.188
G14  22786680.400   119744258.312       -3307.961          43.562    22786674.300    93307215.410       -2577.631          37.375
G16  21424675.840   112587011.127       -1280.101          48.188    21424668.620    87730146.308        -997.480          43.500
G21  25448093.740   133730753.211        -915.977          41.875    25448085.200   104206203.436        -713.754          33.188
G22  24253238.820   127451774.624       -1180.974          43.375    24253229.860    99313146.020        -920.241          36.625
G23  22349941.180   117449602.033        2406.519          47.875    22349932.080    91519550.905        1875.211          41.188
G26  22665527.660   119108959.381       -1715.577          47.312    22665524.300    92811221.557       -1336.813          41.625    22665525.020    88944485.530       -1281.105          50.375
G27  19990736.060   105052779.260         611.805          49.938    19990731.240    81859102.151         476.732          49.625    19990732.260    78447874.002         456.899          52.812
G31  22492792.620   118200955.282        -819.671          49.000    22492785.020    92104677.264        -638.705          41.938
G32  25129359.920   132055614.612       -3631.165          44.625    25129358.120   102900270.313       -2829.480          33.250    25129361.340    98613169.512       -2711.275          43.375
R01  22672223.760   121195493.641       -3461.840          41.812    22672225.760    94263166.084       -2692.544          37.125
R02  21342505.180   113888242.170       -1214.226          47.250    21342505.400    88579315.146        -944.397          45.000
R03  23546895.600   126047796.267        1681.627          40.562    23546892.880    98037175.138        1307.934          39.812
R11  22639371.740   120978845.420        -440.602          42.812    22639372.560    94094690.589        -342.689          41.312
R12  21735073.740   116104861.231         686.006          43.625
R13  23832467.960   127263547.629        1438.646          37.375    23832468.740    98982788.058        1118.946          28.312
R21  23408832.740   125265678.273       -3372.011          38.875    23408831.180    97428701.530       -2622.674          41.125
R22  20021029.640   106874260.451        -229.208          49.312    20021029.600    83124448.845        -178.271          48.688
R23  21028971.480   112491036.770        3617.279          47.625    21028972.300    87492375.258        2813.440          41.125
E02  25136711.560   132093741.438          29.397          50.438    25136708.700   101214705.249          22.650          52.312    25136710.000    99928210.843          22.383          48.875    25136710.420    98641452.436          22.046          50.625
E03  25528283.340   134152700.186       -2401.515          49.875    25528282.140   102792291.291       -1840.146          51.875    25528282.960   101485566.059       -1816.707          47.688    25528283.500   100178884.827       -1793.337          49.125
E07  27538410.500   144714723.803        1344.884          44.125    27538407.720   110885701.478        1030.344          48.688    27538409.060   109475649.104        1017.343          42.625    27538412.300   108066321.737        1004.196          44.125
E08  22909919.220   120392955.673        -718.244          51.125    22909915.660    92249152.314        -550.293          52.562    22909916.760    91076663.235        -543.314          49.125    22909917.140    89903836.151        -536.303          50.500
E30  24654426.920   129559385.593         654.684          48.062    24654425.000    99273171.790         501.695          50.688    24654425.600    98011232.307         495.311          45.562    24654426.500    96749280.815         488.985          47.250
S20  38226563.920   200882434.631          39.700          42.625
S35  40665706.940   213699161.055          -3.264          40.188
S38  38181659.400   200646408.547           -.496          46.375
> 2018 01 01 00 00  5.0000000  0 29
G03  24425408.260   128355991.246       -1249.149          39.438    24425405.580   100017774.707        -973.363          38.000    24425405.860    95850625.267        -932.659          46.875
G08  21778206.600   114445911.989        2714.112          47.312    21778203.000    89178316.088        2114.894          43.812    21778203.500    85462040.641        2026.585          51.562
G09  24874198.880   130715073.139        3212.974          41.250    24874195.960   101855901.010        2503.614          35.125    24874197.660    97611538.527        2399.174          47.125
G14  22787309.880   119747566.347       -3307.898          43.750    22787303.820    93309793.099       -2577.581          38.188
G16  21424919.400   112588291.120       -1280.087          48.188    21424912.200    87731143.706        -997.470          43.188
G21  25448268.060   133731669.271        -916.190          41.938    25448259.520   104206917.240        -713.918          32.125
G22  24253463.520   127452955.328       -1180.431          43.625    24253454.500    99314066.051        -919.815          35.125
G23  22349483.240   117447195.542        2406.445          47.812    22349474.140    91517675.722        1875.153          41.875
G26  22665854.100   119110674.790       -1715.188          47.312    22665850.740    92812558.239       -1336.511          41.562    22665851.440    88945766.519       -1280.877          50.375
G27  19990619.660   105052167.592         611.462          49.938    19990614.840    81858625.529         476.465          49.625    19990615.880    78447417.239         456.640          52.812
G31  22492948.600   118201774.952        -819.597          49.000    22492940.980    92105315.967        -638.647          41.812
G32  25130050.500   132059245.314       -3629.948          38.125    25130050.140   102903099.321       -2828.541          19.750
R01  22672871.320   121198955.367       -3461.345          41.812    22672873.340    94265858.534       -2692.158          36.875
R02  21342732.760   113889456.593       -1214.599          47.312    21342732.980    88580259.699        -944.688          45.062
R03  23546581.480   126046114.710        1681.423          40.625    23546578.760    98035867.258        1307.775          39.625
R11  22639454.160   120979285.838        -440.276          42.688    22639454.960    94095033.140        -342.435          41.125
R12  21734945.260   116104174.933         686.539          43.500
R13  23832198.500   127262108.717        1439.321          37.125    23832199.200    98981668.902        1119.471          28.250
R21  23409462.800   125269050.175       -3371.637          38.625    23409461.300    97431324.124       -2622.383          41.375
R22  20021072.640   106874489.954        -229.754          49.312    20021072.580    83124627.348        -178.696          48.625
R23  21028295.260   112487419.514        3617.200          47.688    21028296.100    87489561.841        2813.380          41.125
E02  25136705.900   132093711.713          29.989          50.500    25136703.040   101214682.478          22.962          52.250    25136704.340    99928188.362          22.686          48.812    25136704.780    98641430.242          22.393          50.625
E03  25528740.320   134155101.622       -2401.356          49.875    25528739.120   102794131.348       -1840.018          51.875    25528739.940   101487382.732       -1816.639          47.625    25528740.460   100180678.113       -1793.286          49.125
E07  27538154.580   144713379.126        1344.748          44.125    27538151.880   110884671.132        1030.428          48.625    27538153.180   109474631.871        1017.212          42.562    27538156.400   108065317.597        1004.081          44.000
E08  22910055.900   120393673.924        -718.172          51.125    22910052.340    92249702.662        -550.298          52.562    22910053.440    91077206.583        -543.298          49.062    22910053.800    89904372.511        -536.379          50.375
E30  24654302.300   129558730.711         655.029          48.062    24654300.400    99272669.991         501.966          50.625    24654300.980    98010736.891         495.537          45.562    24654301.880    96748791.785         489.136          47.188
S20  38226556.400   200882394.750          40.099          42.375
S35  40665707.400   213699163.883          -2.319          40.562
S38  38181659.480   200646408.847           -.142          46.562
> 2018 01 01 00 00  6.0000000  0 28
G03  24425645.960   128357240.399       -1249.200          39.562    24425643.300   100018748.072        -973.402          37.812    24425643.540    95851558.087        -932.958          46.875
G08  21777690.220   114443198.465        2713.138          47.188    21777686.640    89176201.654        2114.134          43.625    21777687.120    85460014.292        2026.121          51.625
G09  24873587.560   130711860.502        3212.639          41.500    24873584.620   101853397.657        2503.354          35.375    24873586.320    97609139.481        2398.893          47.188
G14  22787939.420   119750874.604       -3308.401          43.750    22787933.380    93312370.962       -2577.974          36.375
G16  21425162.980   112589571.168       -1280.198          48.250    21425155.780    87732141.147        -997.556          43.688
G21  25448442.460   133732585.649        -916.590          42.062    25448433.980   104207631.292        -714.231          33.812
G22  24253688.180   127454135.964       -1180.688          43.625    24253679.180    99314986.033        -920.016          37.062
G23  22349025.380   117444789.487        2405.768          47.875    22349016.280    91515800.874        1874.626          41.125
G26  22666180.540   119112390.115       -1715.309          47.312    22666177.160    92813894.852       -1336.605          41.625    22666177.860    88947047.444       -1280.941          50.375
G27  19990503.400   105051556.568         610.628          50.000    19990498.560    81858149.406         475.814          49.625    19990499.600    78446960.953         455.998          52.750
G31  22493104.620   118202594.856        -820.107          49.000    22493097.000    92105954.853        -639.044          41.875
R01  22673518.900   121202417.054       -3461.686          41.875    22673520.920    94268550.955       -2692.424          37.250
R02  21342960.460   113890671.639       -1215.368          47.500    21342960.660    88581204.735        -945.286          45.250
R03  23546267.500   126044433.808        1680.396          40.562    23546264.780    98034559.886        1306.973          39.688
R11  22639536.600   120979726.302        -440.715          42.875    22639537.360    94095375.723        -342.777          40.938
R12  21734816.740   116103488.487         686.516          43.750
R13  23831929.020   127260669.597        1439.250          37.562    23831929.620    98980549.581        1119.415          28.562
R21  23410092.980   125272422.564       -3372.702          39.250    23410091.540    97433947.091       -2623.214          41.562
R22  20021115.800   106874720.326        -230.892          49.375    20021115.740    83124806.527        -179.581          48.625
R23  21027619.120   112483802.615        3616.567          47.812    21027619.960    87486748.697        2812.887          41.000
E02  25136700.220   132093681.864          29.833          50.500    25136697.360   101214659.605          22.796          52.250    25136698.660    99928165.779          22.533          48.750    25136699.100    98641407.949          22.265          50.562
E03  25529197.300   134157503.105       -2401.712          49.875    25529196.120   102795971.439       -1840.227          51.875    25529196.920   101489199.432       -1816.834          47.562    25529197.440   100182471.416       -1793.450          49.125
E07  27537898.760   144712034.786        1344.017          44.250    27537896.120   110883641.057        1029.856          48.625    27537897.360   109473614.880        1016.833          42.375    27537900.560   108064313.702        1003.667          44.000
E08  22910192.640   120394392.524        -718.751          51.250    22910189.080    92250253.279        -550.832          52.500    22910190.180    91077750.203        -543.809          49.000    22910190.540    89904909.118        -536.749          50.375
E30  24654177.660   129558075.692         654.945          48.125    24654175.760    99272168.101         501.888          50.625    24654176.340    98010241.381         495.443          45.438    24654177.220    96748302.647         489.091          47.125
S20  38226548.880   200882354.751          39.947          42.625
S35  40665708.020   213699166.620          -2.550          40.750
S38  38181659.500   200646409.086           -.291          46.625
> 2018 01 01 00 00  7.0000000  0 28
G03  24425883.760   128358490.080       -1250.072          39.562    24425881.140   100019721.849        -974.084          37.875    24425881.320    95852491.273        -933.291          46.938
G08  21777174.000   114440485.763        2712.288          47.062    21777170.420    89174087.862        2113.473          44.062    21777170.900    85457988.580        2025.421          51.562
G09  24872976.320   130708648.542        3211.437          41.500    24872973.360   101850894.836        2502.417          35.875    24872975.100    97606740.916        2398.396          47.312
G14  22788569.100   119754183.545       -3309.211          43.812    22788563.040    93314949.353       -2578.606          36.688
G16  21425406.680   112590851.773       -1280.900          48.188    21425399.480    87733139.019        -998.102          43.625
G21  25448617.000   133733502.838        -917.544          42.062    25448608.620   104208345.998        -714.971          32.500
G22  24253912.920   127455316.960       -1181.291          43.375    24253903.900    99315906.289        -920.484          35.812
G23  22348567.680   117442384.334        2404.703          47.812    22348558.580    91513926.726        1873.795          41.375
G26  22666507.020   119114105.803       -1715.841          47.250    22666503.640    92815231.756       -1337.019          41.688    22666504.360    88948328.635       -1281.303          50.375
G27  19990387.320   105050946.637         609.416          50.000    19990382.480    81857674.135         474.870          49.438    19990383.540    78446505.485         455.115          52.750
G31  22493260.780   118203415.453        -820.907          48.875    22493253.180    92106594.282        -639.668          42.062
R01  22674166.540   121205879.152       -3462.276          42.000    22674168.580    94271243.695       -2692.884          36.750
R02  21343188.360   113891887.760       -1216.577          47.562    21343188.560    88582150.606        -946.227          45.000
R03  23545953.680   126042753.994        1679.459          40.812    23545950.980    98033253.364        1306.245          39.625
R11  22639619.100   120980167.208        -441.178          43.125    22639619.840    94095718.648        -343.138          40.938
R12  21734688.300   116102802.381         685.747          43.875
R13  23831659.600   127259230.684        1438.891          37.562    23831660.080    98979430.423        1119.135          28.500
R21  23410723.340   125275795.858       -3373.894          39.625    23410721.940    97436570.756       -2624.143          41.625
R22  20021159.220   106874952.051        -232.384          49.375    20021159.160    83124986.760        -180.741          48.625
R23  21026943.140   112480186.537        3615.698          47.875    21026943.960    87483936.195        2812.211          41.125
E02  25136694.620   132093652.326          29.385          50.375    25136691.740   101214636.968          22.547          52.250    25136693.040    99928143.432          22.250          48.688    25136693.500    98641385.889          21.985          50.625
E03  25529654.400   134159905.082       -2402.300          49.875    25529653.200   102797811.915       -1840.649          51.875    25529654.000   101491016.512       -1817.239          47.625    25529654.520   100184265.102       -1793.832          49.125
E07  27537643.060   144710691.223        1343.208          44.125    27537640.500   110882611.571        1029.204          48.625    27537641.700   109472598.478        1016.280          42.375    27537644.880   108063310.388        1003.031          43.938
E08  22910329.540   120395111.917        -719.758          51.125    22910325.960    92250804.501        -551.495          52.500    22910327.080    91078294.418        -544.484          49.062    22910327.420    89905446.333        -537.479          50.375
E30  24654053.080   129557421.014         654.586          48.062    24654051.180    99271666.461         501.554          50.625    24654051.760    98009746.114         495.172          45.375    24654052.620    96747813.762         488.806          47.125
S20  38226541.260   200882315.273          39.371          42.562
S35  40665708.600   213699169.735          -3.677          40.188
S38  38181659.660   200646409.739           -.901          46.625
> 2018 01 01 00 00  8.0000000  0 28
G03  24426121.620   128359740.048       -1250.081          39.562    24426119.040   100020695.846        -974.090          38.812    24426119.160    95853424.727        -933.692          47.000
G08  21776657.900   114437773.749        2711.627          46.938    21776654.340    89171974.607        2112.957          44.500    21776654.820    85455963.378        2024.954          51.625
G09  24872365.220   130705437.033        3211.118          41.562    24872362.180   101848392.362        2502.171          34.875    24872364.000    97604342.719        2398.034          47.375
G14  22789198.860   119757493.012       -3309.733          43.562    22789192.800    93317528.158       -2579.012          38.562
G16  21425650.440   112592132.727       -1281.116          48.125    21425643.240    87734137.168        -998.272          43.812
G21  25448791.680   133734420.627        -918.240          41.875    25448783.280   104209061.159        -715.513          28.625
G22  24254137.660   127456498.157       -1181.443          43.375    24254128.660    99316826.710        -920.602          35.875
G23  22348110.120   117439979.884        2404.026          47.688    22348101.020    91512053.129        1873.268          41.188
G26  22666833.540   119115821.693       -1716.060          47.188    22666830.140    92816568.811       -1337.189          41.688    22666830.880    88949609.975       -1281.390          50.500
G27  19990271.440   105050337.631         608.504          49.938    19990266.600    81857199.585         474.159          49.625    19990267.660    78446050.710         454.443          52.750
G31  22493417.020   118204236.534        -821.280          48.875    22493409.420    92107234.085        -639.958          42.125
R01  22674814.220   121209341.471       -3462.561          42.188    22674816.280    94273936.605       -2693.105          37.250
R02  21343416.420   113893104.766       -1217.431          47.625    21343416.600    88583097.165        -946.891          45.250
R03  23545640.080   126041075.127        1678.368          40.500    23545637.360    98031947.576        1305.396          39.375
R11  22639701.660   120980608.380        -441.432          43.188    22639702.380    94096061.785        -343.336          41.125
R12  21734559.860   116102116.390         685.930          43.750
R13  23831390.160   127257791.852        1438.579          38.062    23831390.600    98978311.329        1118.893          28.500
R21  23411353.820   125279169.873       -3374.444          39.875    23411352.480    97439194.986       -2624.570          41.875
R22  20021202.860   106875184.925        -233.474          49.438    20021202.780    83125167.885        -181.589          48.688
R23  21026267.260   112476571.094        3615.059          47.875    21026268.080    87481124.179        2811.714          41.125
E02  25136689.020   132093622.924          29.335          50.375    25136686.140   101214614.441          22.507          52.250    25136687.440    99928121.191          22.243          48.812    25136687.920    98641363.933          21.952          50.625
E03  25530111.540   134162307.377       -2402.547          49.875    25530110.340   102799652.641       -1840.865          51.875    25530111.140   101492833.838       -1817.428          47.562    25530111.640   100186059.032       -1794.020          49.188
E07  27537387.480   144709348.261        1342.837          43.875    27537385.000   110881582.557        1028.823          48.750    27537386.140   109471582.552        1015.735          42.500    27537389.300   108062307.538        1002.718          43.875
E08  22910466.560   120395831.928        -720.351          51.125    22910462.980    92251356.197        -551.891          52.562    22910464.100    91078839.099        -544.841          49.062    22910464.420    89905984.003        -537.828          50.438
E30  24653928.520   129556766.492         654.481          48.062    24653926.640    99271164.952         501.451          50.625    24653927.220    98009250.974         495.142          45.438    24653928.060    96747324.991         488.760          47.188
S20  38226533.660   200882276.165          39.015          42.625
S35  40665709.180   213699173.040          -3.731          40.375
S38  38181659.800   200646410.620           -.962          46.375
> 2018 01 01 00 00  9.0000000  0 29
G03  24426359.500   128360990.219       -1250.245          39.375    24426356.940   100021670.013        -974.217          38.062    24426357.020    95854358.265        -933.499          47.125
G08  21776141.900   114435062.246        2711.217          47.000    21776138.360    89169861.747        2112.638          43.625    21776138.820    85453938.544        2024.752          51.625
G09  24871754.140   130702225.810        3211.306          41.625    24871751.080   101845890.113        2502.318          33.250    24871752.940    97601944.735        2397.914          47.562
G14  22789828.700   119760802.827       -3309.969          43.500    22789822.620    93320107.240       -2579.195          38.062
G16  21425894.220   112593413.866       -1281.157          48.125    21425887.040    87735135.455        -998.305          43.688
G21  25448966.440   133735338.857        -918.312          41.938    25448958.040   104209776.682        -715.563          31.750
G22  24254362.440   127457679.361       -1181.235          43.125    24254353.440    99317747.131        -920.439          36.375
G23  22347652.680   117437575.976        2403.706          47.688    22347643.560    91510179.958        1873.020          41.688
G26  22667160.060   119117537.590       -1715.890          47.125    22667156.680    92817905.876       -1337.058          41.812    22667157.400    88950891.326       -1281.268          50.500
G27  19990155.680   105049729.371         608.080          49.938    19990150.840    81856725.617         473.829          49.688    19990151.920    78445596.486         454.074          52.812
G31  22493573.340   118205057.977        -821.562          48.812    22493565.740    92107874.171        -640.178          41.938
G32                                                                                                                                  25132816.520    98626731.632       -2711.903          45.188
R01  22675461.940   121212803.842       -3462.165          42.250    22675463.980    94276629.557       -2692.798          36.938
R02  21343644.620   113894322.458       -1217.941          47.375    21343644.800    88584044.259        -947.288          45.312
R03  23545326.620   126039396.996        1677.565          40.312    23545323.860    98030642.361        1304.773          39.625
R11  22639784.240   120981049.636        -441.227          43.188    22639784.940    94096404.981        -343.177          40.938
R12  21734431.440   116101430.385         686.023          43.812
R13  23831120.700   127256352.900        1439.107          37.625    23831121.040    98977192.144        1119.304          28.500
R21  23411984.440   125282544.427       -3374.830          39.875    23411983.120    97441819.633       -2624.871          42.000
R22  20021246.680   106875418.772        -234.247          49.375    20021246.600    83125349.769        -182.191          48.812
R23  21025591.480   112472956.132        3614.801          47.750    21025592.280    87478312.540        2811.512          41.125
E02  25136683.420   132093593.501          29.483          50.375    25136680.540   101214591.892          22.645          52.250    25136681.840    99928098.929          22.358          48.750    25136682.320    98641341.960          22.071          50.625
E03  25530568.720   134164709.829       -2402.511          49.875    25530567.520   102801493.477       -1840.757          51.875    25530568.300   101494651.272       -1817.392          47.625    25530568.800   100187853.063       -1793.985          49.188
E07  27537131.980   144708005.750        1342.440          43.875    27537129.560   110880553.867        1028.575          48.688    27537130.660   109470566.939        1015.490          42.500    27537133.800   108061304.995        1002.472          43.812
E08  22910603.660   120396552.386        -720.703          51.062    22910600.080    92251908.232        -552.098          52.438    22910601.180    91079384.116        -545.068          49.000    22910601.500    89906522.005        -538.108          50.438
E30  24653803.960   129556111.956         654.613          48.062    24653802.100    99270663.412         501.686          50.625    24653802.660    98008755.812         495.317          45.500    24653803.500    96746836.211         488.930          47.188
S20  38226526.200   200882236.965          39.330          42.375
S35  40665709.860   213699176.482          -3.147          40.250
S38  38181659.940   200646411.592           -.948          46.312
> 2018 01 01 00 00 10.0000000  0 29
G03  24426597.360   128362240.318       -1249.967          39.625    24426594.880   100022644.119        -973.998          38.875    24426594.880    95855291.798        -933.602          47.125
G08  21775625.960   114432351.036        2710.868          47.125    21775622.440    89167749.120        2112.366          44.562    21775622.900    85451913.948        2024.393          51.625
G09  24871143.100   130699014.701        3210.732          41.812    24871140.060   101843387.957        2501.871          34.938    24871141.900    97599546.829        2397.727          47.625
G14  22790458.560   119764112.761       -3310.228          43.750    22790452.500    93322686.409       -2579.397          38.625
G16  21426138.020   112594695.001       -1281.272          48.188    21426130.840    87736133.740        -998.394          44.125
G21  25449141.220   133736257.327        -918.651          41.875    25449132.800   104210492.379        -715.827          31.375
G22  24254587.200   127458860.412       -1181.149          42.875    24254578.140    99318667.441        -920.371          37.312
G23  22347195.300   117435172.431        2403.096          47.875    22347186.160    91508307.066        1872.543          41.125
G26  22667486.560   119119253.296       -1715.710          47.125    22667483.160    92819242.788       -1336.917          42.375    22667483.900    88952172.544       -1281.333          50.438
G27  19990040.020   105049121.676         607.129          49.938    19990035.200    81856252.086         473.087          49.750    19990036.280    78445142.686         453.443          52.812
G31  22493729.660   118205879.555        -821.720          48.875    22493722.080    92108514.357        -640.302          42.375
G32                                                                                                                                  25133507.860    98629443.450       -2711.865          47.750
R01  22676109.640   121216266.100       -3462.362          42.188    22676111.660    94279322.418       -2692.952          36.875
R02  21343872.920   113895540.665       -1218.691          47.562    21343873.100    88584991.753        -947.870          45.188
R03  23545013.220   126037719.378        1676.926          40.375    23545010.480    98029337.545        1304.274          39.750
R11  22639866.800   120981490.855        -441.478          43.188    22639867.480    94096748.156        -343.370          40.875
R12  21734302.980   116100744.149         686.195          43.625
R13  23830851.220   127254913.644        1438.914          37.750    23830851.460    98976072.720        1119.153          29.125
R21  23412615.140   125285919.358       -3375.168          40.188    23412613.820    97444444.568       -2625.136          42.188
R22  20021290.620   106875653.396        -235.147          49.375    20021290.540    83125532.250        -182.893          48.688
R23  21024915.740   112469341.440        3614.299          47.688    21024916.540    87475501.111        2811.120          41.000
E02  25136677.800   132093563.844          29.593          50.375    25136674.880   101214569.168          22.681          52.250    25136676.200    99928076.494          22.380          48.812    25136676.700    98641319.815          22.075          50.625
E03  25531025.900   134167112.245       -2402.519          49.812    25531024.680   102803334.285       -1840.846          51.875    25531025.460   101496468.680       -1817.451          47.625    25531025.960   100189647.079       -1794.113          49.188
E07  27536876.520   144706663.477        1341.930          43.875    27536874.200   110879525.383        1028.165          48.750    27536875.240   109469551.520        1015.200          42.438    27536878.360   108060302.641        1002.234          43.750
E08  22910740.820   120397273.100        -721.031          51.125    22910737.220    92252460.470        -552.460          52.562    22910738.340    91079929.336        -545.468          49.062    22910738.640    89907060.204        -538.453          50.500
E30  24653679.360   129555457.213         654.658          48.062    24653677.520    99270161.730         501.605          50.625    24653678.080    98008260.513         495.177          45.375    24653678.900    96746347.285         488.850          47.250
S20  38226518.460   200882197.768          39.014          42.375
S35  40665710.420   213699179.827          -3.287          40.312
S38  38181660.120   200646412.396           -.997          46.438
> 2018 01 01 00 00 11.0000000  0 28
G03  24426835.260   128363490.564       -1250.202          39.500    24426832.800   100023618.347        -974.181          37.500    24426832.760    95856225.428        -933.644          47.188
G08  21775110.120   114429640.323        2710.378          46.938    21775106.600    89165636.874        2111.983          44.688    21775107.060    85449889.716        2024.081          51.625
G09  24870532.120   130695803.877        3210.515          41.875    24870529.100   101840886.020        2501.701          35.875    24870530.920    97597149.133        2397.633          47.688
G14  22791088.480   119767423.013       -3310.385          43.500    22791082.440    93325265.830       -2579.519          37.625
G16  21426381.860   112595976.291       -1281.240          48.188    21426374.660    87737132.145        -998.370          43.938
G21  25449316.100   133737176.215        -919.306          41.812    25449307.760   104211208.388        -716.340          32.875
G22  24254811.940   127460041.441       -1180.984          42.750    24254802.880    99319587.714        -920.246          37.312
G23  22346738.000   117432769.387        2402.703          47.750    22346728.880    91506434.558        1872.235          40.938
G26  22667813.040   119120969.018       -1715.719          47.125    22667809.640    92820579.710       -1336.925          42.875    22667810.380    88953453.765       -1281.193          50.562
G27  19989924.520   105048514.699         606.484          49.875    19989919.680    81855779.115         472.584          49.812    19989920.780    78444689.421         453.056          52.812
G31  22493886.060   118206701.451        -822.097          48.812    22493878.500    92109154.793        -640.596          42.562
G32                                                                                                                                  25134198.800    98632155.359       -2711.691          45.625
R01  22676757.340   121219728.384       -3462.217          42.312    22676759.320    94282015.307       -2692.838          36.688
R02  21344101.320   113896759.548       -1219.200          47.562    21344101.520    88585939.775        -948.266          45.250
R03  23544699.960   126036042.476        1676.590          40.312    23544697.220    98028033.285        1304.013          39.438
R11  22639949.400   120981932.159        -441.324          43.250    22639950.040    94097091.392        -343.252          40.875
R12  21734174.500   116100057.850         686.345          43.875
R13  23830581.660   127253474.220        1439.127          37.812    23830581.880    98974953.161        1119.317          28.312
R21  23413245.920   125289294.824       -3375.873          40.562    23413244.640    97447069.925       -2625.684          42.000
R22  20021334.760   106875888.962        -236.077          49.250    20021334.680    83125715.468        -183.616          48.750
R23  21024240.100   112465727.184        3613.941          47.688    21024240.900    87472690.017        2810.842          41.125
E02  25136672.140   132093534.127          29.700          50.312    25136669.220   101214546.400          22.846          52.250    25136670.540    99928054.013          22.575          48.750    25136671.040    98641297.626          22.277          50.625
E03  25531483.100   134169514.768       -2402.499          49.812    25531481.880   102805175.190       -1840.842          51.875    25531482.640   101498286.185       -1817.481          47.625    25531483.140   100191441.177       -1794.058          49.250
E07  27536621.160   144705321.601        1341.751          43.875    27536618.900   110878497.186        1028.102          48.875    27536619.900   109468536.410        1014.955          42.625    27536622.980   108059300.602        1002.028          43.625
E08  22910878.040   120397994.236        -721.440          51.062    22910874.440    92253013.022        -552.660          52.438    22910875.560    91080474.867        -545.677          49.062    22910875.860    89907598.704        -538.593          50.438
E30  24653554.760   129554802.427         654.599          47.938    24653552.920    99269660.009         501.799          50.625    24653553.480    98007765.164         495.405          45.438    24653554.300    96745858.314         489.070          47.250
S35  40665711.080   213699183.263          -3.584          40.062
S38  38181660.300   200646413.261          -1.026          46.312
> 2018 01 01 00 00 12.0000000  0 28
G03  24427073.200   128364740.819       -1250.022          39.625    24427070.740   100024592.565        -974.043          38.625    24427070.660    95857159.056        -933.740          47.188
G08  21774594.340   114426929.952        2710.129          46.938    21774590.820    89163524.896        2111.789          44.625    21774591.280    85447865.742        2023.762          51.625
G09  24869921.160   130692593.195        3210.478          42.000    24869918.140   101838384.181        2501.671          35.625    24869919.960    97594751.539        2397.441          47.688
G14  22791718.420   119770733.452       -3310.597          43.375    22791712.400    93327845.393       -2579.684          39.125
G16  21426625.680   112597257.624       -1281.486          48.125    21426618.500    87738130.586        -998.561          43.812
G21  25449491.020   133738095.362        -919.335          41.750    25449482.700   104211924.610        -716.362          31.750
G22  24255036.680   127461222.350       -1180.902          42.750    24255027.580    99320507.897        -920.183          36.562
G23  22346280.780   117430366.738        2402.389          47.750    22346271.660    91504562.363        1871.991          41.750
G26  22668139.500   119122684.588       -1715.552          47.188    22668136.100    92821916.515       -1336.794          41.875    22668136.840    88954734.869       -1281.123          50.500
G27  19989809.120   105047908.318         605.927          49.875    19989804.280    81855306.609         472.150          49.688    19989805.380    78444236.612         452.482          52.812
G31  22494042.500   118207523.527        -822.284          48.812    22494034.940    92109795.372        -640.741          42.312
G32                                                                                                                                  25134889.740    98634866.941       -2711.968          47.062
R01  22677405.000   121223190.563       -3462.290          42.250    22677406.980    94284708.112       -2692.895          36.188
R02  21344329.860   113897979.004       -1219.766          47.375    21344330.040    88586888.239        -948.706          45.375
R03  23544386.820   126034366.137        1676.102          40.625    23544384.060    98026729.465        1303.633          39.625
R11  22640032.000   120982373.417        -441.116          43.562    22640032.580    94097434.591        -343.090          40.875
R12  21734045.980   116099371.362         686.528          43.750
R13  23830312.060   127252034.533        1439.746          38.000    23830312.240    98973833.399        1119.799          27.938
R21  23413876.800   125292670.651       -3376.309          40.750    23413875.500    97449695.566       -2626.023          42.062
R22  20021379.040   106876125.334        -236.777          49.312    20021378.960    83125899.312        -184.161          48.625
R23  21023564.520   112462113.247        3613.704          47.625    21023565.300    87469879.176        2810.657          41.062
