     2.11           OBSERVATION DATA    G (GPS)             RINEX VERSION / TYPE
teqc  2013Mar15     gpsops              20150101 00:36:04UTCPGM / RUN BY / DATE
Linux 2.4.21-27.ELsmp|Opteron|gcc -static|Linux x86_64|=+   COMMENT
BIT 2 OF LLI FLAGS DATA COLLECTED UNDER A/S CONDITION       COMMENT
CRAO                                                        MARKER NAME
12337M002                                                   MARKER NUMBER
Reilnger, Rob       MIT                                     OBSERVER / AGENCY
UC120031621         ASHTECH UZ-12       CQ00                REC # / TYPE / VERS
CR520003501         ASH701945C_M    SCIS                    ANT # / TYPE
  3783897.0146  2551404.4833  4441264.3100                  APPROX POSITION XYZ
        0.0800        0.0000        0.0000                  ANTENNA: DELTA H/E/N
     1     1                                                WAVELENGTH FACT L1/2
     7    L1    L2    P1    P2    C1    S1    S2            # / TYPES OF OBSERV
     1.0000                                                 INTERVAL
                                                            COMMENT
This data is provided as a public service by NASA/JPL.      COMMENT
No warranty is expressed or implied regarding suitability   COMMENT
for use.  For further information, contact:                 COMMENT
Dave Stowers, NASA/JPL m/s 238-600                          COMMENT
4800 Oak Grove Drive, Pasadena CA 91109 USA                 COMMENT
                                                            COMMENT
 SNR is mapped to RINEX snr flag value [0-9]                COMMENT
  L1 & L2: min(max(int(snr_dBHz/6), 0), 9)                  COMMENT
pseudorange smoothing corrections not applied               COMMENT
  2015     1     1     0     0    0.0000000     GPS         TIME OF FIRST OBS
                                                            END OF HEADER
 15  1  1  0  0  0.0000000  0  7G02G29G24G25G12G06G14
 -19840012.93449 -15450438.23048  21242124.7894   21242124.2354   21242125.929
        54.0004         49.0004
 -18541624.60148 -14386607.18847  22113297.0654   22113297.8464   22113296.500
        51.0004         46.0004
 -12841860.17848  -9951085.81947  22313386.3214   22313390.3064   22313386.089
        51.0004         46.0004
 -23665341.97949 -18397762.46048  20943720.5874   20943724.4324   20943721.077
        54.0004         49.0004
 -25402804.39949 -19735048.61848  20320429.0814   20320429.4944   20320429.101
        56.0004         52.0004
  -9714221.28248  -7520223.13447  22920109.4254   22920114.8664   22920108.887
        48.0004         44.0004
  -2046419.49947  -1588856.10946  24077415.4184   24077416.9134   24077416.413
        42.0004         37.0004
 15  1  1  0  0  1.0000000  0  7G02G29G24G25G12G06G14
 -19840104.71149 -15450509.74548  21242107.3484   21242106.8184   21242108.422
        54.0004         49.0004
 -18544205.88248 -14388618.57847  22112805.7264   22112807.0164   22112805.162
        51.0004         46.0004
 -12838687.72548  -9948613.78347  22313990.1314   22313994.3304   22313989.758
        51.0004         46.0004
 -23667115.42349 -18399144.36448  20943383.1354   20943387.7164   20943383.639
        54.0004         49.0004
 -25402167.94449 -19734552.67948  20320550.2064   20320550.5604   20320550.235
        56.0004         52.0004
  -9711795.02148  -7518332.54547  22920570.4654   22920575.1684   22920570.558
        48.0004         44.0004
  -2044969.74447  -1587726.43346  24077691.4874   24077692.5154   24077692.787
        42.0004         37.0004
 15  1  1  0  0  2.0000000  0  7G02G29G24G25G12G06G14
 -19840196.33149 -15450581.13848  21242089.9164   21242089.4944   21242090.916
        54.0004         49.0004
 -18546787.29548 -14390630.06747  22112314.1864   22112315.6334   22112313.974
        51.0004         46.0004
 -12835515.36448  -9946141.81247  22314594.2004   22314598.0334   22314593.412
        51.0004         46.0004
 -23668888.98049 -18400526.35648  20943045.9744   20943050.0334   20943046.172
        54.0004         49.0004
 -25401531.52149 -19734056.76648  20320671.3704   20320671.7954   20320671.351
        56.0004         52.0004
  -9709368.68648  -7516441.89547  22921032.7444   22921038.7854   22921032.345
        48.0004         44.0004
  -2043519.93847  -1586596.72046  24077966.6604   24077968.7904   24077968.823
        42.0004         37.0004
 15  1  1  0  0  3.0000000  0  7G02G29G24G25G12G06G14
 -19840287.56049 -15450652.22648  21242072.7404   21242071.8874   21242073.518
        54.0004         49.0004
 -18549368.59648 -14392641.47147  22111823.4154   22111824.7614   22111822.658
        51.0004         46.0004
 -12832342.85048  -9943669.72147  22315197.4874   22315201.2574   22315197.130
        51.0004         46.0004
 -23670662.41649 -18401908.25448  20942708.0894   20942712.1694   20942708.742
        54.0004         49.0004
 -25400894.87549 -19733560.67948  20320792.3544   20320792.9244   20320792.510
        56.0004         52.0004
  -9706942.08348  -7514551.03447  22921494.7304   22921499.2964   22921494.394
        48.0004         43.0004
  -2042069.83347  -1585466.76946  24078242.5054   24078243.9294   24078244.612
        42.0004         37.0004
 15  1  1  0  0  4.0000000  0  7G02G29G24G25G12G06G14
 -19840378.12549 -15450722.79848  21242055.5704   21242054.7584   21242056.240
        54.0004         49.0004
 -18551949.50848 -14394652.56947  22111331.5034   22111333.7424   22111331.504
        51.0004         46.0004
 -12829169.92848  -9941197.31547  22315801.0964   22315805.1974   22315800.933
        51.0004         46.0004
 -23672435.44549 -18403289.83748  20942370.7274   20942374.8974   20942371.407
        54.0004         49.0004
 -25400257.75749 -19733064.22248  20320913.6234   20320914.0864   20320913.736
        56.0004         52.0004
  -9704514.90548  -7512659.72547  22921957.0444   22921961.4474   22921956.298
        48.0004         43.0004
  -2040619.17847  -1584336.38946  24078518.2744   24078521.2834   24078520.560
        42.0004         37.0004
 15  1  1  0  0  5.0000000  0  7G02G29G24G25G12G06G14
 -19840467.75149 -15450792.63248  21242038.2814   21242038.0424   21242039.198
        54.0004         49.0004
 -18554529.77048 -14396663.16047  22110840.8724   22110842.8774   22110840.404
        51.0004         46.0004
 -12825996.30948  -9938724.36447  22316404.8774   22316408.7724   22316404.903
        51.0004         46.0004
 -23674207.80349 -18404670.89348  20942033.5264   20942037.6984   20942034.116
        54.0004         49.0004
 -25399619.87649 -19732567.17248  20321035.0454   20321035.4044   20321035.089
        56.0004         52.0004
  -9702086.89548  -7510767.77147  22922419.1094   22922421.6354   22922418.438
        48.0004         43.0004
  -2039167.70047  -1583205.36646  24078793.5174   24078796.5824   24078796.754
        42.0004         37.0004
 15  1  1  0  0  6.0000000  0  7G02G29G24G25G12G06G14
 -19840556.54849 -15450861.82548  21242021.4634   21242020.7214   21242022.227
        54.0004         49.0004
 -18557109.49548 -14398673.33447  22110349.7204   22110351.5454   22110349.466
        51.0004         46.0004
 -12822822.13648  -9936250.98447  22317008.8154   22317012.4894   22317008.835
        51.0004         46.0004
 -23675979.60649 -18406051.51748  20941696.6914   20941700.6994   20941696.968
        54.0004         49.0004
 -25398981.35749 -19732069.62548  20321156.6244   20321157.2614   20321156.633
        56.0004         52.0004
  -9699658.16048  -7508875.24747  22922881.0124   22922885.6314   22922880.751
        48.0004         43.0004
  -2037715.50647  -1582073.78746  24079071.0094   24079072.6394   24079072.871
        42.0004         37.0004
 15  1  1  0  0  7.0000000  0  7G02G29G24G25G12G06G14
 -19840645.04549 -15450930.78448  21242004.5864   21242004.2024   21242005.330
        54.0004         49.0004
 -18559689.20248 -14400683.49647  22109859.3934   22109860.7904   22109858.595
        51.0004         46.0004
 -12819647.91548  -9933777.56547  22317613.7304   22317617.1614   22317612.920
        51.0004         46.0004
 -23677751.36649 -18407432.11048  20941359.4914   20941363.3484   20941359.763
        54.0004         49.0004
 -25398342.72149 -19731571.98648  20321278.0664   20321278.5634   20321278.186
        56.0004         52.0004
  -9697229.24148  -7506982.58447  22923343.0604   22923348.7694   22923343.150
        48.0004         43.0004
  -2036263.13247  -1580942.06846  24079348.3364   24079349.4574   24079349.337
        42.0004         37.0004
 15  1  1  0  0  8.0000000  0  7G02G29G24G25G12G06G14
 -19840733.00749 -15450999.32648  21241987.8974   21241986.9384   21241988.550
        54.0004         49.0004
 -18562268.65248 -14402693.45647  22109367.9734   22109369.6584   22109367.647
        51.0004         46.0004
 -12816473.40148  -9931303.91947  22318217.0704   22318221.0764   22318216.937
        51.0004         46.0004
 -23679522.87649 -18408812.50848  20941022.0724   20941026.2664   20941022.656
        54.0004         49.0004
 -25397703.73849 -19731074.07948  20321399.8224   20321400.2204   20321399.750
        56.0004         52.0004
  -9694799.88548  -7505089.57847  22923805.8344   22923808.7754   22923805.573
        48.0004         44.0004
  -2034810.31947  -1579810.00646  24079624.4344   24079625.7044   24079625.651
        42.0004         37.0004
 15  1  1  0  0  9.0000000  0  7G02G29G24G25G12G06G14
 -19840820.47749 -15451067.48648  21241971.3594   21241970.4704   21241971.887
        54.0004         49.0004
 -18564847.89148 -14404703.25147  22108877.3474   22108879.1244   22108876.841
        51.0004         46.0004
 -12813298.64448  -9928830.08347  22318821.7984   22318825.0044   22318821.018
        51.0004         46.0004
 -23681294.15349 -18410192.72648  20940685.1534   20940689.1454   20940685.566
        54.0004         49.0004
 -25397064.43949 -19730575.92448  20321521.2474   20321521.9234   20321521.367
        56.0004         52.0004
  -9692370.13648  -7503196.26847  22924266.9824   22924270.8734   22924268.084
        48.0004         44.0004
  -2033357.13547  -1578677.65246  24079901.5334   24079902.5284   24079902.277
        42.0004         37.0004
 15  1  1  0  0 10.0000000  0  7G02G29G24G25G12G06G14
 -19840907.13349 -15451135.00948  21241954.4314   21241954.1554   21241955.345
        54.0004         49.0004
 -18567426.59048 -14406712.62947  22108386.7454   22108388.3974   22108386.217
        51.0004         46.0004
 -12810123.30048  -9926355.78847  22319425.6524   22319429.7054   22319425.360
        51.0004         46.0004
 -23683064.87449 -18411572.50748  20940348.3144   20940352.5694   20940348.596
        54.0004         49.0004
 -25396424.49949 -19730077.26948  20321642.9524   20321643.7104   20321643.084
        56.0004         52.0004
  -9689939.68048  -7501302.39947  22924729.7624   22924734.6024   22924730.548
        48.0004         44.0004
  -2031903.25547  -1577544.75746  24080178.7554   24080178.7364   24080178.868
        42.0004         37.0004
 15  1  1  0  0 11.0000000  0  7G02G29G24G25G12G06G14
 -19840992.96649 -15451201.89248  21241938.2044   21241937.4704   21241939.017
        54.0004         49.0004
 -18570004.75848 -14408721.59047  22107895.7894   22107897.7014   22107895.485
        51.0004         46.0004
 -12806947.36748  -9923881.03447  22320029.5444   22320034.1674   22320029.678
        51.0004         46.0004
 -23684835.04849 -18412951.86448  20940011.3514   20940015.6464   20940011.772
        54.0004         49.0004
 -25395783.92149 -19729578.11848  20321764.6704   20321765.4954   20321764.937
        56.0004         52.0004
  -9687508.50048  -7499407.98147  22925193.7954   22925196.5744   22925193.186
        48.0004         43.0004
  -2030448.64047  -1576411.29346  24080455.2594   24080455.8374   24080455.747
        42.0004         37.0004
 15  1  1  0  0 12.0000000  0  7G02G29G24G25G12G06G14
 -19841077.95449 -15451268.11648  21241922.3504   21241921.3294   21241922.819
        54.0004         49.0004
 -18572582.36248 -14410730.11347  22107405.0654   22107407.4114   22107404.968
        51.0004         46.0004
 -12803770.85748  -9921405.83447  22320634.9864   22320637.6404   22320634.220
        51.0004         46.0004
 -23686604.63949 -18414330.76948  20939674.4564   20939678.5944   20939675.051
        54.0004         49.0004
 -25395142.68749 -19729078.45648  20321886.8854   20321887.4854   20321886.907
        56.0004         52.0004
  -9685076.58748  -7497512.98447  22925656.5944   22925660.0514   22925655.984
        48.0004         44.0004
  -2028993.29647  -1575277.26146  24080730.9784   24080732.9634   24080732.668
        42.0004         37.0004
 15  1  1  0  0 13.0000000  0  7G02G29G24G25G12G06G14
 -19841162.73149 -15451334.17648  21241905.9244   21241905.1104   21241906.697
        54.0004         49.0004
 -18575160.03748 -14412738.69247  22106914.8614   22106916.5234   22106914.429
        51.0004         46.0004
 -12800594.37948  -9918930.65747  22321238.9324   22321242.3844   22321238.667
        51.0004         46.0004
 -23688374.28249 -18415709.71048  20939338.0874   20939342.0164   20939338.293
        54.0004         49.0004
 -25394501.41449 -19728578.76248  20322008.7844   20322009.6964   20322008.816
        56.0004         52.0004
  -9682644.56348  -7495617.89547  22926117.8304   22926123.3444   22926118.986
        48.0004         44.0004
  -2027537.85947  -1574143.15446  24081007.6974   24081010.2634   24081009.852
        42.0004         37.0004
 15  1  1  0  0 14.0000000  0  7G02G29G24G25G12G06G14
 -19841247.03149 -15451399.86348  21241890.1534   21241889.3154   21241890.645
        54.0004         49.0004
 -18577737.51648 -14414747.11647  22106424.4754   22106426.8554   22106424.003
        51.0004         46.0004
 -12797417.67748  -9916455.30747  22321843.2084   22321847.3084   22321843.222
        51.0004         46.0004
 -23690143.70749 -18417088.48448  20939001.0534   20939005.2404   20939001.589
        54.0004         49.0004
 -25393859.84149 -19728078.83648  20322130.8084   20322131.7284   20322130.855
        56.0004         52.0004
  -9680212.15948  -7493722.51447  22926581.4524   22926585.5364   22926581.998
        48.0004         44.0004
  -2026082.03547  -1573008.74446  24081284.2774   24081286.8484   24081287.033
        42.0004         37.0004
 15  1  1  0  0 15.0000000  0  7G02G29G24G25G12G06G14
 -19841330.84149 -15451465.17148  21241873.7474   21241873.3814   21241874.716
        54.0004         49.0004
 -18580314.77848 -14416755.37047  22105934.2424   22105935.3774   22105933.597
        51.0004         46.0004
 -12794240.75448  -9913979.78147  22322448.3024   22322451.1934   22322447.701
        51.0004         46.0004
 -23691912.91249 -18418467.08648  20938664.8124   20938668.5914   20938664.915
        54.0004         49.0004
 -25393217.95049 -19727578.66248  20322252.9124   20322253.9684   20322252.955
        56.0004         52.0004
  -9677779.38348  -7491826.84847  22927044.1964   22927049.2834   22927045.104
        48.0004         44.0004
  -2024625.84247  -1571874.05146  24081560.5564   24081562.6234   24081564.046
        42.0004         37.0004
 15  1  1  0  0 16.0000000  0  7G02G29G24G25G12G06G14
 -19841413.79849 -15451529.81248  21241858.3414   21241857.3234   21241858.850
        54.0004         49.0004
 -18582891.47048 -14418763.17947  22105443.7474   22105445.4584   22105443.284
        51.0004         46.0004
 -12791063.22348  -9911503.78147  22323052.2864   22323056.4224   22323052.469
        51.0004         46.0004
 -23693681.52249 -18419845.22348  20938327.9114   20938331.6864   20938328.341
        54.0004         49.0004
 -25392575.38649 -19727077.96248  20322375.3854   20322376.1334   20322375.161
        56.0004         52.0004
  -9675345.83948  -7489930.57747  22927508.4174   22927511.3744   22927508.295
        48.0004         44.0004
  -2023168.91547  -1570738.78146  24081838.0364   24081839.4234   24081841.039
        42.0004         37.0004
 15  1  1  0  0 17.0000000  0  7G02G29G24G25G12G06G14
 -19841495.99749 -15451593.86348  21241842.5954   21241842.0384   21241843.161
        54.0004         49.0004
 -18585467.68548 -14420770.62347  22104953.7854   22104955.3094   22104953.161
        51.0004         46.0004
 -12787885.18248  -9909027.38747  22323657.4504   22323660.6324   22323657.234
        51.0004         46.0004
 -23695449.64149 -18421222.97848  20937991.6024   20937995.4324   20937991.824
        54.0004         49.0004
 -25391932.25449 -19726576.82148  20322497.5094   20322498.5494   20322497.449
        56.0004         52.0004
  -9672911.65648  -7488033.81147  22927971.2494   22927975.5174   22927971.440
        48.0004         43.0004
  -2021711.30547  -1569602.98146  24082115.9184   24082116.8414   24082118.126
        42.0004         37.0004
 15  1  1  0  0 18.0000000  0  7G02G29G24G25G12G06G14
 -19841577.74249 -15451657.56148  21241827.1514   21241826.2564   21241827.645
        54.0004         49.0004
 -18588043.72848 -14422777.92847  22104463.5734   22104465.8844   22104463.019
        51.0004         46.0004
 -12784706.92548  -9906550.82547  22324262.3444   22324266.1274   22324261.969
        51.0004         46.0004
 -23697217.56849 -18422600.58448  20937655.4124   20937659.0594   20937655.421
        54.0004         49.0004
 -25391288.84349 -19726075.46448  20322620.0154   20322621.0974   20322619.854
        56.0004         52.0004
  -9670477.10248  -7486136.76147  22928434.6934   22928437.8764   22928434.815
        48.0004         44.0004
  -2020253.38547  -1568466.93946  24082393.3214   24082394.7514   24082395.345
        42.0004         37.0004
 15  1  1  0  0 19.0000000  0  7G02G29G24G25G12G06G14
 -19841659.05649 -15451720.92148  21241811.5754   21241810.8584   21241812.177
        54.0004         49.0004
 -18590619.62748 -14424785.12247  22103973.7194   22103975.4694   22103972.847
        51.0004         46.0004
 -12781528.48748  -9904074.12247  22324866.8974   22324870.6344   22324866.875
        51.0004         46.0004
 -23698985.32449 -18423978.05848  20937318.6424   20937322.8554   20937319.019
        54.0004         49.0004
 -25390645.19649 -19725573.91848  20322742.4144   20322743.4854   20322742.283
        56.0004         52.0004
  -9668042.23648  -7484239.46147  22928898.6834   22928902.3174   22928898.226
        48.0004         44.0004
  -2018795.11947  -1567330.62846  24082670.3924   24082672.9584   24082672.557
        42.0004         37.0004
 15  1  1  0  0 20.0000000  0  7G02G29G24G25G12G06G14
 -19841739.92749 -15451783.93748  21241796.1114   21241795.5724   21241796.762
        54.0004         49.0004
 -18593195.35648 -14426792.18547  22103483.1304   22103485.2014   22103482.822
        51.0004         46.0004
 -12778349.84348  -9901597.25847  22325471.8084   22325475.4604   22325471.746
        51.0004         46.0004
 -23700752.90849 -18425355.39348  20936982.2914   20936986.4434   20936982.652
        54.0004         49.0004
 -25390001.27649 -19725072.16348  20322865.0354   20322865.9924   20322864.795
        56.0004         52.0004
  -9665607.03648  -7482341.90047  22929360.2304   22929364.2084   22929361.621
        48.0004         44.0004
  -2017336.51847  -1566194.05746  24082947.5934   24082950.6354   24082949.872
        42.0004         37.0004
 15  1  1  0  0 21.0000000  0  7G02G29G24G25G12G06G14
 -19841820.11649 -15451846.42148  21241780.9354   21241780.1764   21241781.546
        54.0004         49.0004
 -18595770.68748 -14428798.93647  22102992.7314   22102994.9404   22102992.851
        51.0004         46.0004
 -12775170.77848  -9899120.06647  22326077.3094   22326080.7474   22326076.723
        51.0004         46.0004
 -23702520.07249 -18426732.40348  20936646.2604   20936650.1604   20936646.408
        54.0004         49.0004
 -25389356.85449 -19724570.01748  20322987.5444   20322988.6474   20322987.388
        56.0004         52.0004
  -9663171.24648  -7480443.88147  22929824.5634   22929828.6324   22929825.189
        48.0004         44.0004
  -2015877.35947  -1565057.05046  24083226.2414   24083229.6084   24083227.463
        42.0004         37.0004
 15  1  1  0  0 22.0000000  0  7G02G29G24G25G12G06G14
 -19841900.11749 -15451908.76148  21241765.7674   21241765.0854   21241766.341
        54.0004         49.0004
 -18598346.11748 -14430805.76247  22102503.4854   22102504.8874   22102502.786
        51.0004         46.0004
 -12771991.75848  -9896642.90647  22326681.6114   22326685.6674   22326681.646
        51.0004         46.0004
 -23704287.32349 -18428109.48348  20936309.8524   20936313.5834   20936310.183
        54.0004         49.0004
 -25388712.42849 -19724067.86748  20323110.3574   20323111.2464   20323109.970
        56.0004         52.0004
  -9660735.38048  -7478545.80247  22930287.8894   22930291.4484   22930288.690
        48.0004         44.0004
  -2014418.11947  -1563919.98246  24083504.5244   24083507.8294   24083505.398
        42.0004         37.0004
 15  1  1  0  0 23.0000000  0  7G02G29G24G25G12G06G14
 -19841979.72249 -15451970.79248  21241750.3274   21241749.8364   21241751.143
        54.0004         49.0004
 -18600921.41948 -14432812.49147  22102013.2664   22102014.7954   22102012.913
        51.0004         46.0004
 -12768812.58848  -9894165.63147  22327286.9264   22327290.2614   22327286.682
        51.0004         46.0004
 -23706054.44249 -18429486.45748  20935973.5024   20935977.8644   20935973.937
        54.0004         49.0004
 -25388067.78449 -19723565.54548  20323232.8264   20323233.9844   20323232.654
        56.0004         52.0004
  -9658299.22548  -7476647.50147  22930750.3274   22930755.5294   22930752.173
        48.0004         44.0004
  -2012958.59447  -1562782.69146  24083782.7344   24083785.8464   24083783.199
        42.0004         37.0004
 15  1  1  0  0 24.0000000  0  7G02G29G24G25G12G06G14
 -19842058.42549 -15452032.11848  21241735.6814   21241734.8204   21241736.173
        54.0004         49.0004
 -18603496.10148 -14434818.73647  22101523.4414   22101525.1124   22101523.068
        51.0004         46.0004
 -12765632.79048  -9891687.86747  22327892.1134   22327896.0184   22327891.813
        51.0004         46.0004
 -23707820.91749 -18430862.93248  20935637.4944   20935641.2204   20935637.811
        54.0004         49.0004
 -25387422.41949 -19723062.66348  20323355.7874   20323356.8074   20323355.457
        56.0004         52.0004
  -9655862.26148  -7474748.57047  22931215.3794   22931219.7444   22931215.937
        48.0004         44.0004
  -2011498.27447  -1561644.78146  24084061.1134   24084064.1404   24084061.418
        42.0004         37.0004
 15  1  1  0  0 25.0000000  0  7G02G29G24G25G12G06G14
 -19842136.44849 -15452092.91548  21241720.6324   21241719.7014   21241721.329
        54.0004         49.0004
 -18606070.39548 -14436824.68147  22101033.5404   22101035.1344   22101033.217
        51.0004         46.0004
 -12762452.54748  -9889209.75447  22328497.5884   22328500.5484   22328497.029
        51.0004         46.0004
 -23709586.99449 -18432239.09548  20935301.0904   20935305.0854   20935301.739
        54.0004         49.0004
 -25386776.55649 -19722559.39448  20323478.3994   20323479.9564   20323478.343
        56.0004         52.0004
  -9653424.73848  -7472849.20047  22931680.2384   22931683.3024   22931679.793
        48.0004         44.0004
  -2010037.37947  -1560506.42046  24084339.9654   24084341.5834   24084339.894
        42.0004         37.0004
 15  1  1  0  0 26.0000000  0  7G02G29G24G25G12G06G14
 -19842213.71449 -15452153.12348  21241706.0454   21241705.0704   21241706.674
        54.0004         49.0004
 -18608644.21048 -14438830.24747  22100543.4164   22100545.6364   22100543.484
        51.0004         46.0004
 -12759271.80548  -9886731.26047  22329102.5624   22329105.8674   22329102.392
        51.0004         46.0004
 -23711352.56949 -18433614.87048  20934965.3574   20934969.1894   20934965.790
        54.0004         49.0004
 -25386130.11749 -19722055.67748  20323601.6214   20323602.7464   20323601.357
        56.0004         52.0004
  -9650986.56548  -7470949.32447  22932143.5764   22932147.3594   22932143.722
        48.0004         44.0004
  -2008575.85447  -1559367.56946  24084618.1564   24084620.0644   24084618.238
        42.0004         37.0004
 15  1  1  0  0 27.0000000  0  7G02G29G24G25G12G06G14
 -19842290.35549 -15452212.84348  21241691.3964   21241690.2974   21241692.038
        54.0004         49.0004
 -18611217.68148 -14440835.55047  22100053.3874   22100055.4894   22100053.806
        51.0004         46.0004
 -12756090.68648  -9884252.46247  22329708.3974   22329711.5704   22329707.795
        51.0004         46.0004
 -23713117.77949 -18434990.35848  20934629.4464   20934633.2494   20934629.916
        54.0004         49.0004
 -25385483.22449 -19721551.60448  20323724.7124   20323725.8404   20323724.477
        56.0004         52.0004
  -9648547.86248  -7469049.03647  22932607.1544   22932611.0624   22932607.697
        48.0004         44.0004
  -2007113.79447  -1558228.30346  24084895.9014   24084898.1574   24084896.356
        42.0004         37.0004
 15  1  1  0  0 28.0000000  0  7G02G29G24G25G12G06G14
 -19842366.33749 -15452272.04948  21241676.7454   21241676.3304   21241677.619
        54.0004         49.0004
 -18613790.77548 -14442840.56147  22099564.1394   22099566.1904   22099564.236
        51.0004         46.0004
 -12752909.18648  -9881773.37147  22330313.4754   22330316.4094   22330313.260
        51.0004         46.0004
 -23714882.59149 -18436365.53548  20934293.9774   20934297.5614   20934294.068
        54.0004         49.0004
 -25384835.85549 -19721047.16148  20323847.9034   20323849.1064   20323847.716
        56.0004         52.0004
  -9646108.61548  -7467148.32347  22933072.1344   22933075.0884   22933071.694
        48.0004         44.0004
  -2005651.19947  -1557088.62146  24085173.7584   24085175.8914   24085174.564
        42.0004         37.0004
 15  1  1  0  0 29.0000000  0  7G02G29G24G25G12G06G14
 -19842441.64549 -15452330.73048  21241662.6764   21241661.7844   21241663.230
        54.0004         49.0004
 -18616363.47348 -14444845.25947  22099074.4084   22099076.3594   22099074.706
        51.0004         46.0004
 -12749727.25848  -9879293.94447  22330918.7444   22330922.3014   22330918.782
        51.0004         46.0004
 -23716647.00049 -18437740.39748  20933957.5834   20933961.8574   20933958.310
        54.0004         49.0004
 -25384187.98649 -19720542.32848  20323971.2534   20323972.2254   20323971.048
        56.0004         52.0004
  -9643668.77648  -7465247.14847  22933536.3614   22933540.4234   22933535.897
        48.0004         44.0004
  -2004188.05747  -1555948.50946  24085451.7774   24085453.6444   24085453.289
        42.0004         37.0004
 15  1  1  0  0 30.0000000  0  7G02G29G24G25G12G06G14
 -19842516.30949 -15452388.91248  21241648.3844   21241647.4644   21241649.026
        54.0004         49.0004
 -18618935.81148 -14446849.67947  22098585.3294   22098586.4154   22098585.241
        51.0004         46.0004
 -12746544.92948  -9876814.21047  22331524.7484   22331527.3944   22331524.414
        51.0004         46.0004
 -23718411.02149 -18439114.95948  20933622.2994   20933626.3874   20933622.607
        54.0004         49.0004
 -25383539.65449 -19720037.13548  20324094.5474   20324095.6384   20324094.408
        56.0004         52.0004
  -9641228.42148  -7463345.57547  22934000.3734   22934005.3034   22934000.313
        48.0004         44.0004
  -2002724.33747  -1554807.94846  24085731.0364   24085731.1794   24085731.914
        42.0004         37.0004
 15  1  1  0  0 31.0000000  0  7G02G29G24G25G12G06G14
 -19842590.99449 -15452447.10648  21241633.8384   21241633.4654   21241634.788
        54.0004         49.0004
 -18621508.44748 -14448854.32947  22098095.5064   22098097.7224   22098095.696
        51.0004         46.0004
 -12743362.85348  -9874334.66947  22332130.6224   22332132.7914   22332129.963
        51.0004         46.0004
 -23720175.34049 -18440489.75448  20933286.5274   20933290.6864   20933286.912
        54.0004         49.0004
 -25382891.53249 -19719532.10548  20324217.8834   20324218.8474   20324217.753
        56.0004         52.0004
  -9638788.17648  -7461444.08247  22934464.6384   22934468.6274   22934464.626
        48.0004         44.0004
  -2001260.78547  -1553667.52046  24086009.3114   24086009.5034   24086010.457
        42.0004         37.0004
 15  1  1  0  0 32.0000000  0  7G02G29G24G25G12G06G14
 -19842665.11549 -15452504.86348  21241620.0714   21241619.4274   21241620.691
        54.0004         49.0004
 -18624080.80648 -14450858.76447  22097606.4174   22097607.2994   22097606.266
        51.0004         46.0004
 -12740180.46348  -9871854.88447  22332735.8944   22332738.8824   22332735.588
        51.0004         46.0004
 -23721939.34349 -18441864.30048  20932950.9834   20932954.8174   20932951.218
        54.0004         49.0004
 -25382243.02149 -19719026.77248  20324341.2904   20324342.4484   20324341.188
        56.0004         52.0004
  -9636347.47948  -7459542.23547  22934929.6294   22934932.6204   22934928.979
        48.0004         44.0004
  -1999796.73147  -1552526.70246  24086288.0034   24086287.7584   24086289.033
        42.0004         37.0004
 15  1  1  0  0 33.0000000  0  7G02G29G24G25G12G06G14
 -19842738.81849 -15452562.29648  21241606.2394   21241605.1174   21241606.731
        54.0004         49.0004
 -18626653.01748 -14452863.08747  22097117.0774   22097118.0644   22097116.930
        51.0004         46.0004
 -12736997.92748  -9869374.98747  22333341.7194   22333343.8714   22333341.228
        51.0004         46.0004
 -23723703.20349 -18443238.73748  20932614.9564   20932619.2264   20932615.594
        54.0004         49.0004
 -25381594.27649 -19718521.25648  20324464.8314   20324466.0204   20324464.683
        56.0004         52.0004
  -9633906.46248  -7457640.14647  22935394.6314   22935396.9244   22935393.505
        48.0004         44.0004
  -1998332.40547  -1551385.66846  24086567.0144   24086567.1154   24086567.702
        42.0004         37.0004
 15  1  1  0  0 34.0000000  0  7G02G29G24G25G12G06G14
 -19842812.05949 -15452619.36548  21241592.2524   21241591.4484   21241592.821
        54.0004         49.0004
 -18629225.05848 -14454867.27647  22096627.2274   22096628.5624   22096627.499
        51.0004         46.0004
 -12733815.17648  -9866894.91947  22333946.8124   22333949.9624   22333946.929
        51.0004         46.0004
 -23725466.86149 -18444613.01648  20932279.3974   20932283.5164   20932279.893
        54.0004         49.0004
 -25380945.24849 -19718015.52148  20324588.1974   20324589.4184   20324588.198
        56.0004         52.0004
  -9631465.09648  -7455737.78547  22935858.5834   22935861.7014   22935858.114
        48.0004         44.0004
  -1996867.72547  -1550244.36246  24086845.8204   24086846.1734   24086846.539
        42.0004         37.0004
 15  1  1  0  0 35.0000000  0  7G02G29G24G25G12G06G14
 -19842884.43249 -15452675.75848  21241577.9594   21241577.7234   21241579.051
        54.0004         49.0004
 -18631796.50948 -14456871.00447  22096138.0174   22096139.4994   22096138.273
        51.0004         46.0004
 -12730631.80348  -9864414.36647  22334553.0824   22334555.8234   22334552.804
        51.0004         46.0004
 -23727229.91649 -18445986.82648  20931944.2674   20931947.8954   20931944.349
        54.0004         49.0004
 -25380295.53349 -19717509.24848  20324711.9034   20324712.9574   20324711.867
        56.0004         52.0004
  -9629022.96648  -7453834.82647  22936324.2954   22936327.5484   22936322.720
        48.0004         44.0004
  -1995402.28647  -1549102.46246  24087124.0804   24087124.7654   24087125.507
        42.0004         37.0004
 15  1  1  0  0 36.0000000  0  7G02G29G24G25G12G06G14
 -19842956.01549 -15452731.53648  21241564.7884   21241563.9454   21241565.407
        54.0004         49.0004
 -18634367.45448 -14458874.34047  22095649.2024   22095649.6264   22095649.104
        51.0004         46.0004
 -12727447.90848  -9861933.41247  22335158.8284   22335161.5124   22335158.749
        51.0004         46.0004
 -23728992.45349 -18447360.23248  20931608.3454   20931612.6974   20931608.941
        54.0004         49.0004
 -25379645.21449 -19717002.50848  20324835.8594   20324836.7454   20324835.655
        56.0004         52.0004
  -9626580.16948  -7451931.34747  22936788.4654   22936792.0894   22936787.442
        48.0004         44.0004
  -1993936.15847  -1547960.02546  24087402.6624   24087403.4944   24087404.464
        42.0004         38.0004
 15  1  1  0  0 37.0000000  0  7G02G29G24G25G12G06G14
 -19843027.12649 -15452786.94948  21241551.3434   21241550.6164   21241551.877
        54.0004         49.0004
 -18636938.21348 -14460877.52747  22095159.5184   22095160.8464   22095160.044
        51.0004         46.0004
 -12724263.79348  -9859452.27847  22335764.1334   22335767.2684   22335764.640
        51.0004         46.0004
 -23730754.77549 -18448733.47048  20931273.4554   20931277.2714   20931273.553
        54.0004         49.0004
 -25378994.60949 -19716495.54448  20324959.5604   20324960.3964   20324959.496
        56.0004         52.0004
  -9624136.99448  -7450027.57447  22937251.9094   22937256.6254   22937252.257
        49.0004         44.0004
  -1992469.68347  -1546817.32246  24087681.3814   24087682.3294   24087683.470
        42.0004         38.0004
 15  1  1  0  0 38.0000000  0  7G02G29G24G25G12G06G14
 -19843097.56349 -15452841.83348  21241537.6664   21241536.8644   21241538.518
        54.0004         49.0004
 -18639508.57048 -14462880.40047  22094671.0294   22094671.9344   22094671.009
        51.0004         46.0004
 -12721079.26348  -9856970.82447  22336370.8944   22336373.0404   22336370.617
        51.0004         46.0004
 -23732516.69449 -18450106.39348  20930937.7434   20930942.1894   20930938.251
        54.0004         49.0004
 -25378343.50349 -19715988.18748  20325083.5904   20325084.4824   20325083.363
        56.0004         52.0004
  -9621693.25748  -7448123.35947  22937717.9074   22937722.4114   22937717.113
        49.0004         44.0004
  -1991002.63347  -1545674.16546  24087961.1734   24087961.8634   24087962.717
        42.0004         38.0004
 15  1  1  0  0 39.0000000  0  7G02G29G24G25G12G06G14
 -19843167.30049 -15452896.17348  21241524.6154   21241523.6054   21241525.294
        54.0004         49.0004
 -18642078.52548 -14464882.96047  22094181.9534   22094182.8714   22094181.948
        51.0004         46.0004
 -12717894.28548  -9854489.02647  22336977.0614   22336980.0674   22336976.776
        51.0004         46.0004
 -23734278.17349 -18451478.97348  20930602.7804   20930606.7744   20930603.002
        54.0004         49.0004
 -25377691.88449 -19715480.43448  20325207.6794   20325208.3304   20325207.393
        56.0004         52.0004
  -9619248.91748  -7446218.68347  22938184.0024   22938186.4684   22938182.295
        49.0004         44.0004
  -1989535.01147  -1544530.56246  24088241.2864   24088241.4924   24088242.107
        42.0004         38.0004
 15  1  1  0  0 40.0000000  0  7G02G29G24G25G12G06G14
 -19843236.60749 -15452950.17848  21241511.2524   21241510.8714   21241512.183
        54.0004         49.0004
 -18644648.32548 -14466885.40747  22093692.7574   22093693.6464   22093692.924
        51.0004         46.0004
 -12714709.11148  -9852007.07147  22337582.7364   22337585.6494   22337582.831
        51.0004         46.0004
 -23736039.49049 -18452851.42848  20930267.5454   20930272.0984   20930267.800
        54.0004         49.0004
 -25377040.01149 -19714972.48048  20325331.8654   20325332.5504   20325331.504
        56.0004         52.0004
  -9616804.25948  -7444313.75547  22938648.1094   22938651.4694   22938647.521
        49.0004         44.0004
  -1988067.06347  -1543386.70746  24088519.8734   24088520.4194   24088521.414
        42.0004         38.0004
 15  1  1  0  0 41.0000000  0  7G02G29G24G25G12G06G14
 -19843305.14549 -15453003.58448  21241498.3364   21241497.6924   21241499.169
        54.0004         49.0004
 -18647217.63648 -14468887.46647  22093203.8494   22093204.6154   22093204.009
        51.0004         46.0004
 -12711523.40948  -9849524.69847  22338189.3924   22338191.6804   22338188.951
        51.0004         46.0004
 -23737800.29549 -18454223.48548  20929932.4814   20929936.7624   20929932.685
        54.0004         49.0004
 -25376387.55049 -19714464.06948  20325455.6614   20325456.5264   20325455.736
        56.0004         52.0004
  -9614358.93848  -7442408.31147  22939113.8184   22939117.3224   22939112.784
        49.0004         44.0004
  -1986598.47247  -1542242.34846  24088798.2584   24088799.3724   24088800.626
        42.0004         38.0004
 15  1  1  0  0 42.0000000  0  7G02G29G24G25G12G06G14
 -19843372.93449 -15453056.40948  21241485.4224   21241484.5674   21241486.318
        54.0004         49.0004
 -18649786.48648 -14470889.17047  22092714.8874   22092715.9554   22092715.161
        51.0004         46.0004
 -12708337.19048  -9847041.93347  22338795.0914   22338797.7654   22338795.215
        51.0004         46.0004
 -23739560.62449 -18455595.16748  20929597.3974   20929601.7094   20929597.633
        54.0004         49.0004
 -25375734.51249 -19713955.20948  20325580.0714   20325580.9454   20325580.099
        56.0004         52.0004
  -9611912.97648  -7440502.36247  22939578.8854   22939583.3124   22939578.277
        49.0004         44.0004
  -1985129.23347  -1541097.48646  24089077.7694   24089079.4764   24089080.144
        42.0004         38.0004
 15  1  1  0  0 43.0000000  0  7G02G29G24G25G12G06G14
 -19843440.08549 -15453108.73348  21241472.7324   21241471.8014   21241473.608
        54.0004         49.0004
 -18652354.96448 -14472890.58147  22092226.3554   22092226.7324   22092226.440
        51.0004         46.0004
 -12705150.59048  -9844558.86547  22339402.3614   22339404.5244   22339401.544
        51.0004         46.0004
 -23741320.57849 -18456966.56348  20929262.9374   20929266.8124   20929262.732
        54.0004         49.0004
 -25375081.02149 -19713445.99748  20325704.7164   20325705.1194   20325704.469
        56.0004         52.0004
  -9609466.48548  -7438596.01047  22940045.1924   22940048.9674   22940043.913
        49.0004         44.0004
  -1983659.45547  -1539952.20446  24089357.5304   24089359.2234   24089359.667
        42.0004         38.0004
 15  1  1  0  0 44.0000000  0  7G02G29G24G25G12G06G14
 -19843506.76749 -15453160.69148  21241460.0814   21241459.3934   21241460.971
        54.0004         49.0004
 -18654923.26948 -14474891.85947  22091737.3414   22091738.2374   22091737.707
        51.0004         46.0004
 -12701963.76848  -9842075.63047  22340008.0614   22340011.0494   22340007.959
        51.0004         46.0004
 -23743080.32549 -18458337.79648  20928927.6914   20928931.9524   20928927.869
        54.0004         49.0004
 -25374427.24249 -19712936.55948  20325828.9474   20325829.6874   20325828.935
        56.0004         52.0004
  -9607019.61548  -7436689.35647  22940509.7724   22940514.4514   22940509.568
        49.0004         44.0004
  -1982189.32847  -1538806.64746  24089637.3184   24089639.7034   24089639.015
        42.0004         38.0004
 15  1  1  0  0 45.0000000  0  7G02G29G24G25G12G06G14
 -19843572.79049 -15453212.13648  21241447.2894   21241446.6044   21241448.358
        54.0004         49.0004
 -18657491.19148 -14476892.83547  22091249.4924   22091249.9704   22091249.082
        51.0004         46.0004
 -12698776.54848  -9839592.08047  22340614.3424   22340617.2774   22340614.382
        51.0004         46.0004
 -23744839.68149 -18459708.72048  20928592.9764   20928597.2654   20928593.048
        54.0004         49.0004
 -25373772.98049 -19712426.74548  20325953.6454   20325954.1084   20325953.489
        56.0004         52.0004
  -9604572.21948  -7434782.29147  22940976.2564   22940979.8174   22940975.151
        49.0004         44.0004
  -1980718.65147  -1537660.66346  24089917.6224   24089919.4744   24089918.972
        42.0004         38.0004
 15  1  1  0  0 46.0000000  0  7G02G29G24G25G12G06G14
 -19843638.59349 -15453263.41148  21241435.0354   21241434.3914   21241435.860
        54.0004         49.0004
 -18660059.18448 -14478893.87047  22090759.8084   22090761.3004   22090760.376
        51.0004         46.0004
 -12695589.34748  -9837108.54647  22341220.3694   22341223.8794   22341220.882
        51.0004         46.0004
 -23746599.08349 -18461079.68548  20928258.0114   20928262.3874   20928258.257
        54.0004         49.0004
 -25373118.68849 -19711916.90748  20326077.9324   20326078.6944   20326078.028
        56.0004         52.0004
  -9602124.69648  -7432875.13547  22941441.6264   22941445.8204   22941440.860
        49.0004         44.0004
  -1979247.88147  -1536514.60946  24090197.8764   24090199.8044   24090198.580
        42.0004         38.0004
 15  1  1  0  0 47.0000000  0  7G02G29G24G25G12G06G14
 -19843704.11449 -15453314.46448  21241422.4794   21241421.6164   21241423.318
        54.0004         49.0004
 -18662627.17648 -14480894.90347  22090271.1344   22090272.6824   22090271.622
        51.0004         46.0004
 -12692402.12948  -9834624.99847  22341827.6834   22341830.2724   22341827.282
        51.0004         46.0004
 -23748358.45949 -18462450.62748  20927923.4234   20927927.6194   20927923.519
        54.0004         49.0004
 -25372464.28949 -19711406.98648  20326202.6524   20326203.0794   20326202.649
        56.0004         52.0004
  -9599676.99548  -7430967.83647  22941907.8234   22941910.8644   22941906.683
        49.0004         44.0004
  -1977776.91747  -1535368.40346  24090478.2474   24090479.0334   24090478.462
        42.0004         38.0004
 15  1  1  0  0 48.0000000  0  7G02G29G24G25G12G06G14
 -19843768.77949 -15453364.85148  21241410.2344   21241409.5564   21241410.977
        54.0004         49.0004
 -18665194.58848 -14482895.47847  22089782.3894   22089783.4224   22089782.985
        51.0004         46.0004
 -12689214.30048  -9832140.97247  22342434.0354   22342437.5604   22342433.833
        51.0004         46.0004
 -23750117.23349 -18463821.09748  20927588.9174   20927592.8684   20927588.858
        54.0004         49.0004
 -25371809.21449 -19710896.53748  20326327.3824   20326327.8384   20326327.329
        56.0004         52.0004
  -9597228.54948  -7429059.95047  22942373.3574   22942377.1894   22942372.641
        49.0004         44.0004
  -1976305.21847  -1534221.62546  24090758.3814   24090758.3484   24090758.228
        42.0004         38.0004
 15  1  1  0  0 49.0000000  0  7G02G29G24G25G12G06G14
 -19843832.62649 -15453414.60348  21241397.8894   21241397.2564   21241398.811
        54.0004         49.0004
 -18667761.47748 -14484895.65347  22089294.0394   22089295.1644   22089294.460
        51.0004         46.0004
 -12686025.91348  -9829656.51147  22343040.7474   22343043.7614   22343040.488
        51.0004         46.0004
 -23751875.46849 -18465191.15148  20927253.9754   20927258.3274   20927254.240
        54.0004         49.0004
 -25371153.51049 -19710385.60148  20326451.8734   20326452.6864   20326452.199
        56.0004         52.0004
  -9594779.39148  -7427151.51347  22942839.5964   22942842.8314   22942838.828
        49.0004         44.0004
  -1974832.81547  -1533074.29646  24091038.5434   24091038.2324   24091038.246
        42.0004         38.0004
 15  1  1  0  0 50.0000000  0  7G02G29G24G25G12G06G14
 -19843895.92549 -15453463.92748  21241386.0544   21241385.0664   21241386.712
        54.0004         49.0004
 -18670328.08948 -14486895.60947  22088806.3594   22088806.8484   22088806.053
        51.0004         46.0004
 -12682837.22048  -9827171.81847  22343647.9024   22343650.5594   22343647.192
        51.0004         46.0004
 -23753633.40249 -18466560.97248  20926919.7904   20926923.8614   20926919.780
        54.0004         49.0004
 -25370497.42849 -19709874.36948  20326576.8364   20326577.4224   20326577.083
        56.0004         52.0004
  -9592329.79048  -7425242.73847  22943305.8154   22943309.7964   22943304.929
        49.0004         44.0004
  -1973359.95947  -1531926.61846  24091318.9914   24091319.2004   24091318.725
        42.0004         38.0004
 15  1  1  0  0 51.0000000  0  7G02G29G24G25G12G06G14
 -19843958.67749 -15453512.82448  21241373.8554   21241373.0004   21241374.750
        54.0004         49.0004
 -18672894.43948 -14488895.36547  22088317.1794   22088318.4894   22088317.730
        51.0004         46.0004
 -12679648.23848  -9824686.89647  22344254.4364   22344257.5104   22344253.988
        51.0004         46.0004
 -23755391.07149 -18467930.58548  20926585.5114   20926589.3664   20926585.316
        54.0004         49.0004
 -25369840.98949 -19709362.85848  20326701.8574   20326702.2864   20326702.050
        56.0004         52.0004
  -9589879.75448  -7423333.62347  22943772.0034   22943775.9024   22943771.180
        49.0004         44.0004
  -1971886.69447  -1530778.62146  24091600.0134   24091600.7154   24091599.243
        42.0004         38.0004
 15  1  1  0  0 52.0000000  0  7G02G29G24G25G12G06G14
 -19844020.87449 -15453561.28848  21241362.4424   21241361.4334   21241362.915
        54.0004         49.0004
 -18675460.51948 -14490894.91047  22087829.4614   22087830.1114   22087829.378
        51.0004         46.0004
 -12676458.95348  -9822201.73647  22344862.2934   22344864.8914   22344860.876
        51.0004         46.0004
 -23757148.43549 -18469299.95948  20926250.7774   20926255.0714   20926250.926
        54.0004         49.0004
 -25369184.17049 -19708851.05348  20326826.8894   20326827.1184   20326827.065
        56.0004         52.0004
  -9587429.25248  -7421424.14047  22944238.1244   22944242.1184   22944237.460
        49.0004         44.0004
  -1970412.96447  -1529630.26146  24091880.2074   24091881.2034   24091879.446
        42.0004         38.0004
 15  1  1  0  0 53.0000000  0  7G02G29G24G25G12G06G14
 -19844082.67849 -15453609.44748  21241350.6774   21241349.8524   21241351.158
        54.0004         49.0004
 -18678026.48248 -14492894.36247  22087341.5194   22087342.6744   22087341.097
        51.0004         46.0004
 -12673269.54448  -9819716.48147  22345467.9894   22345471.4394   22345467.719
        51.0004         46.0004
 -23758905.67049 -18470669.23448  20925916.5534   20925920.4794   20925916.584
        54.0004         49.0004
 -25368527.13349 -19708339.07648  20326951.8894   20326952.5064   20326952.121
        56.0004         52.0004
  -9584978.49348  -7419514.45647  22944704.5304   22944707.9484   22944703.848
        49.0004         44.0004
  -1968938.95447  -1528481.68546  24092160.5824   24092161.7264   24092160.074
        42.0004         38.0004
 15  1  1  0  0 54.0000000  0  7G02G29G24G25G12G06G14
 -19844144.04449 -15453657.26348  21241338.5944   21241337.7754   21241339.417
        54.0004         49.0004
 -18680592.28048 -14494893.68447  22086852.9024   22086853.5024   22086852.805
        51.0004         46.0004
 -12670079.95048  -9817231.08047  22346075.4224   22346078.7204   22346074.600
        51.0004         46.0004
 -23760662.72449 -18472038.36848  20925582.3244   20925586.0504   20925582.338
        54.0004         49.0004
 -25367869.83549 -19707826.89548  20327077.0434   20327077.3194   20327077.191
        56.0004         52.0004
  -9582527.38148  -7417604.49647  22945170.1464   22945174.6374   22945170.265
        49.0004         44.0004
  -1967464.62747  -1527332.86146  24092441.6004   24092441.7584   24092440.895
        42.0004         38.0004
 15  1  1  0  0 55.0000000  0  7G02G29G24G25G12G06G14
 -19844204.55149 -15453704.41148  21241327.5254   21241326.3624   21241327.913
        54.0004         49.0004
 -18683157.50448 -14496892.55547  22086364.5114   22086365.5694   22086364.724
        51.0004         46.0004
 -12666889.74048  -9814745.20147  22346681.9884   22346685.5944   22346681.738
        51.0004         46.0004
 -23762419.19149 -18473407.04348  20925247.9394   20925251.4704   20925248.178
        54.0004         49.0004
 -25367211.86949 -19707314.19548  20327202.0884   20327202.6804   20327202.408
        56.0004         52.0004
  -9580075.53848  -7415693.97247  22945637.6664   22945641.3164   22945636.866
        49.0004         44.0004
  -1965989.55247  -1526183.45146  24092722.5264   24092722.8144   24092721.864
        42.0004         38.0004
 15  1  1  0  0 56.0000000  0  7G02G29G24G25G12G06G14
 -19844264.32849 -15453750.99148  21241315.7824   21241314.9134   21241316.588
        54.0004         49.0004
 -18685722.28848 -14498891.09347  22085876.8454   22085877.3004   22085876.728
        51.0004         46.0004
 -12663699.03248  -9812258.93447  22347289.2684   22347292.9464   22347288.870
        51.0004         46.0004
 -23764175.19949 -18474775.36248  20924913.9944   20924917.5414   20924914.107
        54.0004         49.0004
 -25366553.34449 -19706801.05948  20327327.6814   20327327.9714   20327327.703
        56.0004         52.0004
  -9577623.05748  -7413782.95047  22946103.9204   22946108.0354   22946103.567
        49.0004         44.0004
  -1964513.85847  -1525033.56146  24093003.5084   24093003.6264   24093002.785
        42.0004         38.0004
 15  1  1  0  0 57.0000000  0  7G02G29G24G25G12G06G14
 -19844323.46549 -15453797.07348  21241304.5814   21241304.0134   21241305.320
        54.0004         49.0004
 -18688286.69148 -14500889.32747  22085388.0744   22085389.6514   22085388.774
        51.0004         46.0004
 -12660507.92248  -9809772.35947  22347896.5164   22347900.7124   22347896.176
        51.0004         46.0004
 -23765930.81449 -18476143.37348  20924579.5724   20924583.6304   20924580.151
        54.0004         49.0004
 -25365894.35249 -19706287.55948  20327452.7874   20327453.2194   20327453.089
        56.0004         52.0004
  -9575170.04948  -7411871.51047  22946570.4124   22946574.3044   22946570.226
        49.0004         44.0004
  -1963037.63747  -1523883.25846  24093284.5354   24093284.2084   24093283.576
        42.0004         38.0004
 15  1  1  0  0 58.0000000  0  7G02G29G24G25G12G06G14
 -19844382.09149 -15453842.75448  21241293.4544   21241292.2134   21241294.198
        54.0004         49.0004
 -18690850.87148 -14502887.39347  22084900.8214   22084901.7094   22084900.919
        51.0004         46.0004
 -12657316.55848  -9807285.58447  22348504.3594   22348507.3104   22348503.468
        51.0004         46.0004
 -23767686.19049 -18477511.19848  20924245.5964   20924249.7484   20924246.210
        54.0004         49.0004
 -25365235.03249 -19705773.80548  20327578.4324   20327578.7974   20327578.604
        56.0004         52.0004
  -9572716.61448  -7409959.74447  22947036.9874   22947041.7084   22947037.087
        49.0004         44.0004
  -1961561.01747  -1522732.64746  24093565.1304   24093563.8964   24093564.780
        42.0004         38.0004
 15  1  1  0  0 59.0000000  0  7G02G29G24G25G12G06G14
 -19844439.95549 -15453887.84148  21241282.5244   21241281.6684   21241283.221
        54.0004         49.0004
 -18693414.55748 -14504885.07347  22084412.9064   22084414.1154   22084413.097
        51.0004         46.0004
 -12654124.66948  -9804798.39847  22349111.3024   22349115.0334   22349110.918
        51.0004         46.0004
 -23769441.06249 -18478878.63148  20923911.7574   20923915.5684   20923912.339
        54.0004         49.0004
 -25364575.12349 -19705259.58848  20327703.8974   20327704.3084   20327704.193
        56.0004         52.0004
  -9570262.54248  -7408047.48347  22947505.1034   22947508.5254   22947503.998
        49.0004         44.0004
  -1960083.74447  -1521581.52946  24093845.9214   24093844.8474   24093845.967
        42.0004         38.0004
 15  1  1  0  1  0.0000000  0  7G02G29G24G25G12G06G14
 -19844497.47949 -15453932.66548  21241271.6914   21241270.7614   21241272.344
        54.0004         49.0004
 -18695978.18948 -14506882.70247  22083925.4544   22083926.2684   22083925.306
        51.0004         46.0004
 -12650932.73448  -9802311.17347  22349719.1924   22349721.9644   22349718.291
        51.0004         46.0004
 -23771195.86249 -18480246.00848  20923577.6044   20923581.3174   20923578.506
        54.0004         49.0004
 -25363915.05949 -19704745.25448  20327829.5834   20327830.0674   20327829.780
        56.0004         52.0004
  -9567808.24248  -7406135.04647  22947971.3494   22947975.0834   22947970.962
        49.0004         44.0004
  -1958606.23147  -1520430.22246  24094126.4344   24094125.4044   24094126.938
        42.0004         38.0004
 15  1  1  0  1  1.0000000  0  7G02G29G24G25G12G06G14
 -19844554.72849 -15453977.27548  21241260.5084   21241259.7854   21241261.428
        54.0004         49.0004
 -18698541.81648 -14508880.33547  22083437.3254   22083437.9514   22083437.488
        51.0004         46.0004
 -12647740.76048  -9799823.91947  22350326.1594   22350330.6454   22350325.766
        51.0004         46.0004
 -23772950.64849 -18481613.37448  20923243.7714   20923247.6844   20923244.640
        54.0004         49.0004
 -25363254.89749 -19704230.84248  20327955.1994   20327955.5694   20327955.380
        56.0004         52.0004
  -9565353.77548  -7404222.46847  22948438.6544   22948443.0574   22948437.974
        49.0004         44.0004
  -1957128.57147  -1519278.80146  24094407.7274   24094406.5824   24094408.142
        42.0004         38.0004
 15  1  1  0  1  2.0000000  0  7G02G29G24G25G12G06G14
 -19844611.08549 -15454021.18948  21241249.9334   21241249.1894   21241250.702
        54.0004         49.0004
 -18701104.84148 -14510877.49747  22082949.5424   22082950.1274   22082949.687
        51.0004         46.0004
 -12644548.15448  -9797336.17347  22350934.1944   22350936.9344   22350933.276
        51.0004         46.0004
 -23774704.80449 -18482980.24748  20922910.1924   20922913.7514   20922910.920
        54.0004         49.0004
 -25362594.03849 -19703715.88848  20328080.9294   20328081.4184   20328081.107
        56.0004         52.0004
  -9562898.51848  -7402309.28047  22948906.0314   22948910.2864   22948905.267
        49.0004         44.0004
  -1955650.12947  -1518126.76546  24094688.9714   24094688.7394   24094689.528
        42.0004         38.0004
 15  1  1  0  1  3.0000000  0  7G02G29G24G25G12G06G14
 -19844666.69749 -15454064.52248  21241239.5284   21241238.5484   21241240.164
        54.0004         49.0004
 -18703667.38948 -14512874.28747  22082461.6704   22082463.0934   22082462.035
        51.0004         46.0004
 -12641355.05948  -9794848.04847  22351541.2074   22351545.1414   22351540.951
        51.0004         46.0004
 -23776458.47149 -18484346.73948  20922576.1894   20922580.0944   20922577.245
        54.0004         49.0004
 -25361932.60249 -19703200.48248  20328206.6534   20328207.1544   20328206.911
        56.0004         52.0004
  -9560442.63748  -7400395.60647  22949373.2964   22949376.8134   22949372.621
        49.0004         44.0004
  -1954171.06247  -1516974.24546  24094970.0684   24094970.1534   24094971.241
        42.0004         38.0004
 15  1  1  0  1  4.0000000  0  7G02G29G24G25G12G06G14
 -19844721.43149 -15454107.17348  21241228.9874   21241228.0294   21241229.709
        54.0004         49.0004
 -18706229.35148 -14514870.62247  22081974.7474   22081975.1544   22081974.494
        51.0004         46.0004
 -12638161.32948  -9792359.42847  22352149.3884   22352152.6384   22352148.775
        51.0004         46.0004
 -23778211.53049 -18485712.76148  20922242.8584   20922246.6074   20922243.613
        54.0004         49.0004
 -25361270.47349 -19702684.53948  20328332.8714   20328333.3104   20328332.872
        56.0004         52.0004
  -9557985.97048  -7398481.32747  22949840.5294   22949844.3774   22949840.080
        49.0004         44.0004
  -1952691.20947  -1515821.11246  24095251.8514   24095252.6104   24095253.092
        42.0004         38.0004
 15  1  1  0  1  5.0000000  0  7G02G29G24G25G12G06G14
 -19844776.00149 -15454149.69648  21241218.3844   21241217.7704   21241219.317
        54.0004         49.0004
 -18708791.42248 -14516867.03647  22081486.4514   22081487.5914   22081486.958
        51.0004         47.0004
 -12634967.67648  -9789870.86947  22352757.2304   22352760.8234   22352756.597
        51.0004         46.0004
 -23779964.69049 -18487078.86048  20921909.1714   20921912.8984   20921909.989
        54.0004         49.0004
 -25360608.36349 -19702168.60948  20328458.7354   20328459.2394   20328458.866
        56.0004         52.0004
  -9555529.24248  -7396566.99147  22950307.3954   22950311.8284   22950307.598
        49.0004         44.0004
  -1951211.32047  -1514667.95346  24095533.6774   24095535.2884   24095535.296
        42.0004         38.0004
 15  1  1  0  1  6.0000000  0  7G02G29G24G25G12G06G14
 -19844830.17349 -15454191.90948  21241208.2534   21241207.3214   21241208.988
        54.0004         49.0004
 -18711353.37548 -14518863.36847  22080999.5274   22080999.9374   22080999.328
        51.0004         46.0004
 -12631773.89848  -9787382.21047  22353365.0304   22353367.7504   22353364.385
        51.0004         46.0004
 -23781717.70049 -18488444.84348  20921575.4524   20921579.2444   20921576.361
        54.0004         49.0004
 -25359946.05849 -19701652.52848  20328584.7674   20328585.4044   20328584.912
        56.0004         52.0004
  -9553072.23148  -7394652.43647  22950776.3764   22950779.4204   22950775.169
        49.0004         44.0004
  -1949731.13547  -1513514.56646  24095815.1424   24095815.7514   24095817.147
        42.0004         38.0004
 15  1  1  0  1  7.0000000  0  7G02G29G24G25G12G06G14
 -19844883.81949 -15454233.70848  21241198.2484   21241197.3474   21241198.736
        54.0004         49.0004
 -18713915.08348 -14520859.50647  22080511.5644   22080512.2234   22080511.864
        51.0004         46.0004
 -12628579.84348  -9784893.33147  22353971.6404   22353976.3044   22353972.316
        51.0004         46.0004
 -23783470.45549 -18489810.62448  20921241.7534   20921245.7714   20921242.779
        54.0004         49.0004
 -25359283.40849 -19701136.17648  20328711.0134   20328711.3404   20328711.036
        56.0004         52.0004
  -9550614.81748  -7392737.56847  22951242.8094   22951247.5834   22951242.748
        49.0004         44.0004
  -1948250.57247  -1512360.88246  24096096.5664   24096097.5224   24096099.066
        42.0004         38.0004
 15  1  1  0  1  8.0000000  0  7G02G29G24G25G12G06G14
 -19844936.87449 -15454275.05148  21241188.1364   21241187.1094   21241188.635
        54.0004         49.0004
 -18716476.47648 -14522855.39647  22080025.1094   22080025.3904   22080024.396
        51.0004         47.0004
 -12625385.46748  -9782404.20947  22354580.4794   22354584.7744   22354580.292
        51.0004         46.0004
 -23785222.88549 -18491176.15348  20920908.5734   20920912.2144   20920909.219
        54.0004         49.0004
 -25358620.33449 -19700619.49548  20328837.0884   20328837.6864   20328837.217
        56.0004         52.0004
  -9548156.89848  -7390822.30547  22951712.1544   22951715.3164   22951710.456
        49.0004         44.0004
  -1946769.50647  -1511206.80846  24096378.3214   24096378.8524   24096381.038
        42.0004         38.0004
 15  1  1  0  1  9.0000000  0  7G02G29G24G25G12G06G14
 -19844989.28249 -15454315.89048  21241177.8834   21241177.1974   21241178.699
        54.0004         49.0004
 -18719037.50548 -14524851.00147  22079536.5954   22079538.2684   22079537.098
        51.0004         47.0004
 -12622190.69848  -9779914.78347  22355188.3814   22355191.8014   22355188.317
        51.0004         46.0004
 -23786974.91849 -18492541.37448  20920574.8684   20920578.9474   20920575.704
        54.0004         49.0004
 -25357956.79849 -19700102.45448  20328963.3764   20328963.9564   20328963.497
        56.0004         52.0004
  -9545698.45748  -7388906.63347  22952178.3804   22952182.7804   22952178.213
        49.0004         44.0004
