no decoder for 02:14 len=548
UBX-RXM-RAWX
  recvTOW: 29998.003 s
  week: 2092 weeks
  leapS: 18 s
  numMeas: 21 
  recStat:leapSec: true 
  recStat:clkReset: false 
  version: 1 
  prMes[0]: 2.1776152575775977E7 m
  cpMes[0]: 1.1443445790857351E8 cycles
  doMes[0]: -1412.3656005859375 Hz
  gnssId[0]: 0 
  svId[0]: 7 
  sigId[0]: 0 
  freqId[0]: 0 
  lockTime[0]: 64500 ms
  cno[0]: 48 dBHz
  prStdev[0]: 0.08 m
  cpStdev[0]: 0.004 cycles
  doStdev[0]: 0.064 Hz
  trkStat:prValid[0]: true 
  trkStat:cpValid[0]: true 
  trkStat:halfCyc[0]: true 
  trkStat:subHalfCyc[0]: false 
  prMes[1]: 2.6426340274240162E7 m
  cpMes[1]: 1.3887132169380453E8 cycles
  doMes[1]: -4598.677734375 Hz
  gnssId[1]: 0 
  svId[1]: 3 
  sigId[1]: 0 
  freqId[1]: 0 
  lockTime[1]: 64500 ms
  cno[1]: 40 dBHz
  prStdev[1]: 0.16 m
  cpStdev[1]: 0.008 cycles
  doStdev[1]: 0.128 Hz
  trkStat:prValid[1]: true 
  trkStat:cpValid[1]: true 
  trkStat:halfCyc[1]: true 
  trkStat:subHalfCyc[1]: true 
  prMes[2]: 2.4162566230765264E7 m
  cpMes[2]: 1.2697514181432593E8 cycles
  doMes[2]: -3051.4521484375 Hz
  gnssId[2]: 0 
  svId[2]: 4 
  sigId[2]: 0 
  freqId[2]: 0 
  lockTime[2]: 64500 ms
  cno[2]: 43 dBHz
  prStdev[2]: 0.08 m
  cpStdev[2]: 0.004 cycles
  doStdev[2]: 0.128 Hz
  trkStat:prValid[2]: true 
  trkStat:cpValid[2]: true 
  trkStat:halfCyc[2]: true 
  trkStat:subHalfCyc[2]: false 
  prMes[3]: 2.435961883538254E7 m
  cpMes[3]: 1.2801067428027922E8 cycles
  doMes[3]: 2005.751953125 Hz
  gnssId[3]: 0 
  svId[3]: 5 
  sigId[3]: 0 
  freqId[3]: 0 
  lockTime[3]: 64500 ms
  cno[3]: 44 dBHz
  prStdev[3]: 0.08 m
  cpStdev[3]: 0.004 cycles
  doStdev[3]: 0.128 Hz
  trkStat:prValid[3]: true 
  trkStat:cpValid[3]: true 
  trkStat:halfCyc[3]: true 
  trkStat:subHalfCyc[3]: false 
  prMes[4]: 2.5398073807346225E7 m
  cpMes[4]: 1.3346776867695743E8 cycles
  doMes[4]: -3344.345703125 Hz
  gnssId[4]: 0 
  svId[4]: 6 
  sigId[4]: 0 
  freqId[4]: 0 
  lockTime[4]: 64500 ms
  cno[4]: 39 dBHz
  prStdev[4]: 0.16 m
  cpStdev[4]: 0.008 cycles
  doStdev[4]: 0.256 Hz
  trkStat:prValid[4]: true 
  trkStat:cpValid[4]: true 
  trkStat:halfCyc[4]: true 
  trkStat:subHalfCyc[4]: false 
  prMes[5]: 2.5561548047349226E7 m
  cpMes[5]: 1.3432684858900684E8 cycles
  doMes[5]: 766.8349609375 Hz
  gnssId[5]: 0 
  svId[5]: 8 
  sigId[5]: 0 
  freqId[5]: 0 
  lockTime[5]: 64500 ms
  cno[5]: 39 dBHz
  prStdev[5]: 0.16 m
  cpStdev[5]: 0.008 cycles
  doStdev[5]: 0.256 Hz
  trkStat:prValid[5]: true 
  trkStat:cpValid[5]: true 
  trkStat:halfCyc[5]: true 
  trkStat:subHalfCyc[5]: true 
  prMes[6]: 2.202119762630581E7 m
  cpMes[6]: 1.1572216697359201E8 cycles
  doMes[6]: -1889.408935546875 Hz
  gnssId[6]: 0 
  svId[6]: 9 
  sigId[6]: 0 
  freqId[6]: 0 
  lockTime[6]: 64500 ms
  cno[6]: 51 dBHz
  prStdev[6]: 0.08 m
  cpStdev[6]: 0.004 cycles
  doStdev[6]: 0.064 Hz
  trkStat:prValid[6]: true 
  trkStat:cpValid[6]: true 
  trkStat:halfCyc[6]: true 
  trkStat:subHalfCyc[6]: true 
  prMes[7]: 2.2115242972846743E7 m
  cpMes[7]: 1.1621639372332458E8 cycles
  doMes[7]: 324.241455078125 Hz
  gnssId[7]: 0 
  svId[7]: 30 
  sigId[7]: 0 
  freqId[7]: 0 
  lockTime[7]: 64500 ms
  cno[7]: 46 dBHz
  prStdev[7]: 0.08 m
  cpStdev[7]: 0.004 cycles
  doStdev[7]: 0.128 Hz
  trkStat:prValid[7]: true 
  trkStat:cpValid[7]: true 
  trkStat:halfCyc[7]: true 
  trkStat:subHalfCyc[7]: true 
  prMes[8]: 2.3510445405288246E7 m
  cpMes[8]: 1.2354822443161456E8 cycles
  doMes[8]: -2702.1845703125 Hz
  gnssId[8]: 0 
  svId[8]: 23 
  sigId[8]: 0 
  freqId[8]: 0 
  lockTime[8]: 64500 ms
  cno[8]: 46 dBHz
  prStdev[8]: 0.08 m
  cpStdev[8]: 0.004 cycles
  doStdev[8]: 0.128 Hz
  trkStat:prValid[8]: true 
  trkStat:cpValid[8]: true 
  trkStat:halfCyc[8]: true 
  trkStat:subHalfCyc[8]: false 
  prMes[9]: 2.389054997348551E7 m
  cpMes[9]: 1.255456887183658E8 cycles
  doMes[9]: 2593.657958984375 Hz
  gnssId[9]: 0 
  svId[9]: 28 
  sigId[9]: 0 
  freqId[9]: 0 
  lockTime[9]: 64500 ms
  cno[9]: 40 dBHz
  prStdev[9]: 0.32 m
  cpStdev[9]: 0.008 cycles
  doStdev[9]: 0.256 Hz
  trkStat:prValid[9]: true 
  trkStat:cpValid[9]: true 
  trkStat:halfCyc[9]: true 
  trkStat:subHalfCyc[9]: true 
  prMes[10]: 2.6102434670019444E7 m
  cpMes[10]: 1.3716919183576104E8 cycles
  doMes[10]: -278.0244140625 Hz
  gnssId[10]: 0 
  svId[10]: 27 
  sigId[10]: 0 
  freqId[10]: 0 
  lockTime[10]: 64500 ms
  cno[10]: 31 dBHz
  prStdev[10]: 0.64 m
  cpStdev[10]: 0.016 cycles
  doStdev[10]: 0.512 Hz
  trkStat:prValid[10]: true 
  trkStat:cpValid[10]: true 
  trkStat:halfCyc[10]: true 
  trkStat:subHalfCyc[10]: true 
  prMes[11]: 2.5748963673592567E7 m
  cpMes[11]: 1.353116843650162E8 cycles
  doMes[11]: -1987.646240234375 Hz
  gnssId[11]: 0 
  svId[11]: 2 
  sigId[11]: 0 
  freqId[11]: 0 
  lockTime[11]: 64500 ms
  cno[11]: 35 dBHz
  prStdev[11]: 0.32 m
  cpStdev[11]: 0.016 cycles
  doStdev[11]: 0.512 Hz
  trkStat:prValid[11]: true 
  trkStat:cpValid[11]: true 
  trkStat:halfCyc[11]: true 
  trkStat:subHalfCyc[11]: false 
  prMes[12]: 2.1776127204025473E7 m
  cpMes[12]: 8.916959905258304E7 cycles
  doMes[12]: -1100.52490234375 Hz
  gnssId[12]: 0 
  svId[12]: 7 
  sigId[12]: 3 
  freqId[12]: 0 
  lockTime[12]: 64500 ms
  cno[12]: 44 dBHz
  prStdev[12]: 0.08 m
  cpStdev[12]: 0.004 cycles
  doStdev[12]: 0.128 Hz
  trkStat:prValid[12]: true 
  trkStat:cpValid[12]: true 
  trkStat:halfCyc[12]: true 
  trkStat:subHalfCyc[12]: true 
  prMes[13]: 2.642632245138405E7 m
  cpMes[13]: 1.0821133186325887E8 cycles
  doMes[13]: -3583.2568359375 Hz
  gnssId[13]: 0 
  svId[13]: 3 
  sigId[13]: 3 
  freqId[13]: 0 
  lockTime[13]: 64500 ms
  cno[13]: 39 dBHz
  prStdev[13]: 0.32 m
  cpStdev[13]: 0.008 cycles
  doStdev[13]: 0.256 Hz
  trkStat:prValid[13]: true 
  trkStat:cpValid[13]: true 
  trkStat:halfCyc[13]: true 
  trkStat:subHalfCyc[13]: false 
  prMes[14]: 2.4162544991016917E7 m
  cpMes[14]: 9.894157083018151E7 cycles
  doMes[14]: -2377.744384765625 Hz
  gnssId[14]: 0 
  svId[14]: 4 
  sigId[14]: 3 
  freqId[14]: 0 
  lockTime[14]: 64500 ms
  cno[14]: 42 dBHz
  prStdev[14]: 0.32 m
  cpStdev[14]: 0.004 cycles
  doStdev[14]: 0.128 Hz
  trkStat:prValid[14]: true 
  trkStat:cpValid[14]: true 
  trkStat:halfCyc[14]: true 
  trkStat:subHalfCyc[14]: false 
  prMes[15]: 2.4359594586588442E7 m
  cpMes[15]: 9.974848082536569E7 cycles
  doMes[15]: 1563.1339111328125 Hz
  gnssId[15]: 0 
  svId[15]: 5 
  sigId[15]: 3 
  freqId[15]: 0 
  lockTime[15]: 64500 ms
  cno[15]: 41 dBHz
  prStdev[15]: 0.32 m
  cpStdev[15]: 0.008 cycles
  doStdev[15]: 0.256 Hz
  trkStat:prValid[15]: true 
  trkStat:cpValid[15]: true 
  trkStat:halfCyc[15]: true 
  trkStat:subHalfCyc[15]: true 
  prMes[16]: 2.539805242918275E7 m
  cpMes[16]: 1.0400078048849878E8 cycles
  doMes[16]: -2606.19873046875 Hz
  gnssId[16]: 0 
  svId[16]: 6 
  sigId[16]: 3 
  freqId[16]: 0 
  lockTime[16]: 64500 ms
  cno[16]: 35 dBHz
  prStdev[16]: 0.32 m
  cpStdev[16]: 0.012 cycles
  doStdev[16]: 0.512 Hz
  trkStat:prValid[16]: true 
  trkStat:cpValid[16]: true 
  trkStat:halfCyc[16]: true 
  trkStat:subHalfCyc[16]: true 
  prMes[17]: 2.5561530993838314E7 m
  cpMes[17]: 1.0467019004120146E8 cycles
  doMes[17]: 597.960205078125 Hz
  gnssId[17]: 0 
  svId[17]: 8 
  sigId[17]: 3 
  freqId[17]: 0 
  lockTime[17]: 64500 ms
  cno[17]: 37 dBHz
  prStdev[17]: 0.32 m
  cpStdev[17]: 0.012 cycles
  doStdev[17]: 0.256 Hz
  trkStat:prValid[17]: true 
  trkStat:cpValid[17]: true 
  trkStat:halfCyc[17]: true 
  trkStat:subHalfCyc[17]: false 
  prMes[18]: 2.2021173457014907E7 m
  cpMes[18]: 9.017302746388628E7 cycles
  doMes[18]: -1472.15185546875 Hz
  gnssId[18]: 0 
  svId[18]: 9 
  sigId[18]: 3 
  freqId[18]: 0 
  lockTime[18]: 64500 ms
  cno[18]: 44 dBHz
  prStdev[18]: 0.16 m
  cpStdev[18]: 0.004 cycles
  doStdev[18]: 0.128 Hz
  trkStat:prValid[18]: true 
  trkStat:cpValid[18]: true 
  trkStat:halfCyc[18]: true 
  trkStat:subHalfCyc[18]: false 
  prMes[19]: 2.21152205393639E7 m
  cpMes[19]: 9.055813538395257E7 cycles
  doMes[19]: 252.468505859375 Hz
  gnssId[19]: 0 
  svId[19]: 30 
  sigId[19]: 3 
  freqId[19]: 0 
  lockTime[19]: 64500 ms
  cno[19]: 43 dBHz
  prStdev[19]: 0.16 m
  cpStdev[19]: 0.004 cycles
  doStdev[19]: 0.128 Hz
  trkStat:prValid[19]: true 
  trkStat:cpValid[19]: true 
  trkStat:halfCyc[19]: true 
  trkStat:subHalfCyc[19]: false 
  prMes[20]: 2.610241417867603E7 m
  cpMes[20]: 1.0688502160413335E8 cycles
  doMes[20]: -216.0087890625 Hz
  gnssId[20]: 0 
  svId[20]: 27 
  sigId[20]: 3 
  freqId[20]: 0 
  lockTime[20]: 960 ms
  cno[20]: 30 dBHz
  prStdev[20]: 1.28 m
  cpStdev[20]: 0.032 cycles
  doStdev[20]: 2.048 Hz
  trkStat:prValid[20]: true 
  trkStat:cpValid[20]: true 
  trkStat:halfCyc[20]: true 
  trkStat:subHalfCyc[20]: false 
no decoder for 01:07 len=92
no decoder for 01:43 len=392
UBX-NAV-POSECEF
  iTOW: 29998000 ms
  ecefX: 444008030 cm
  ecefY: 308657909 cm
  ecefZ: 337101606 cm
  pAcc: 156 cm
UBX-NAV-POSLLH
  iTOW: 29998000 ms
  lon: 34.8055935 degrees
  lat: 32.1121883 degrees
  height: 77.31400000000001 m
  hMSL: 59.745000000000005 m
  hAcc: 0.994 m
  vAcc: 1.203 m
UBX-NAV-TIMEGPS
  iTOW: 29998000 ms
  fTOW: 92573 ns
  week: 2092 weeks
  leapS: 18 s
  valid:towValid: true 
  valid:weekValid: true 
  valid:leapSValid: true 
  tAcc: 3 ns
UBX-NAV-TIMEUTC
  iTOW: 29998000 ms
  tAcc: 3 ns
  nano: 92572 ns
  year: 2020 y
  month: 2 months
  day: 9 d
  hour: 8 h
  min: 19 min
  sec: 40 s
  valid:validTOW: true 
  valid:validWKN: true 
  valid:validUTC: true 
no decoder for 02:14 len=548
UBX-RXM-RAWX
  recvTOW: 29999.003 s
  week: 2092 weeks
  leapS: 18 s
  numMeas: 21 
  recStat:leapSec: true 
  recStat:clkReset: false 
  version: 1 
  prMes[0]: 2.1776421353662126E7 m
  cpMes[0]: 1.144358701059019E8 cycles
  doMes[0]: -1412.40234375 Hz
  gnssId[0]: 0 
  svId[0]: 7 
  sigId[0]: 0 
  freqId[0]: 0 
  lockTime[0]: 64500 ms
  cno[0]: 48 dBHz
  prStdev[0]: 0.08 m
  cpStdev[0]: 0.004 cycles
  doStdev[0]: 0.064 Hz
  trkStat:prValid[0]: true 
  trkStat:cpValid[0]: true 
  trkStat:halfCyc[0]: true 
  trkStat:subHalfCyc[0]: false 
  prMes[1]: 2.6427215253425546E7 m
  cpMes[1]: 1.3887592014388248E8 cycles
  doMes[1]: -4598.31591796875 Hz
  gnssId[1]: 0 
  svId[1]: 3 
  sigId[1]: 0 
  freqId[1]: 0 
  lockTime[1]: 64500 ms
  cno[1]: 40 dBHz
  prStdev[1]: 0.16 m
  cpStdev[1]: 0.008 cycles
  doStdev[1]: 0.128 Hz
  trkStat:prValid[1]: true 
  trkStat:cpValid[1]: true 
  trkStat:halfCyc[1]: true 
  trkStat:subHalfCyc[1]: true 
  prMes[2]: 2.4163146897230685E7 m
  cpMes[2]: 1.2697819305012931E8 cycles
  doMes[2]: -3051.20166015625 Hz
  gnssId[2]: 0 
  svId[2]: 4 
  sigId[2]: 0 
  freqId[2]: 0 
  lockTime[2]: 64500 ms
  cno[2]: 43 dBHz
  prStdev[2]: 0.08 m
  cpStdev[2]: 0.004 cycles
  doStdev[2]: 0.128 Hz
  trkStat:prValid[2]: true 
  trkStat:cpValid[2]: true 
  trkStat:halfCyc[2]: true 
  trkStat:subHalfCyc[2]: false 
  prMes[3]: 2.435923709665289E7 m
  cpMes[3]: 1.2800866832731594E8 cycles
  doMes[3]: 2005.784423828125 Hz
  gnssId[3]: 0 
  svId[3]: 5 
  sigId[3]: 0 
  freqId[3]: 0 
  lockTime[3]: 64500 ms
  cno[3]: 44 dBHz
  prStdev[3]: 0.08 m
  cpStdev[3]: 0.004 cycles
  doStdev[3]: 0.128 Hz
  trkStat:prValid[3]: true 
  trkStat:cpValid[3]: true 
  trkStat:halfCyc[3]: true 
  trkStat:subHalfCyc[3]: false 
  prMes[4]: 2.5398710093518853E7 m
  cpMes[4]: 1.3347111258541904E8 cycles
  doMes[4]: -3344.07958984375 Hz
  gnssId[4]: 0 
  svId[4]: 6 
  sigId[4]: 0 
  freqId[4]: 0 
  lockTime[4]: 64500 ms
  cno[4]: 39 dBHz
  prStdev[4]: 0.16 m
  cpStdev[4]: 0.008 cycles
  doStdev[4]: 0.256 Hz
  trkStat:prValid[4]: true 
  trkStat:cpValid[4]: true 
  trkStat:halfCyc[4]: true 
  trkStat:subHalfCyc[4]: false 
  prMes[5]: 2.5561402095891878E7 m
  cpMes[5]: 1.3432608148818448E8 cycles
  doMes[5]: 767.008056640625 Hz
  gnssId[5]: 0 
  svId[5]: 8 
  sigId[5]: 0 
  freqId[5]: 0 
  lockTime[5]: 64500 ms
  cno[5]: 40 dBHz
  prStdev[5]: 0.16 m
  cpStdev[5]: 0.008 cycles
  doStdev[5]: 0.256 Hz
  trkStat:prValid[5]: true 
  trkStat:cpValid[5]: true 
  trkStat:halfCyc[5]: true 
  trkStat:subHalfCyc[5]: true 
  prMes[6]: 2.2021557146441016E7 m
  cpMes[6]: 1.15724056197287E8 cycles
  doMes[6]: -1889.42236328125 Hz
  gnssId[6]: 0 
  svId[6]: 9 
  sigId[6]: 0 
  freqId[6]: 0 
  lockTime[6]: 64500 ms
  cno[6]: 51 dBHz
  prStdev[6]: 0.08 m
  cpStdev[6]: 0.004 cycles
  doStdev[6]: 0.064 Hz
  trkStat:prValid[6]: true 
  trkStat:cpValid[6]: true 
  trkStat:halfCyc[6]: true 
  trkStat:subHalfCyc[6]: true 
  prMes[7]: 2.2115181122992996E7 m
  cpMes[7]: 1.1621606942819576E8 cycles
  doMes[7]: 324.07666015625 Hz
  gnssId[7]: 0 
  svId[7]: 30 
  sigId[7]: 0 
  freqId[7]: 0 
  lockTime[7]: 64500 ms
  cno[7]: 46 dBHz
  prStdev[7]: 0.08 m
  cpStdev[7]: 0.004 cycles
  doStdev[7]: 0.128 Hz
  trkStat:prValid[7]: true 
  trkStat:cpValid[7]: true 
  trkStat:halfCyc[7]: true 
  trkStat:subHalfCyc[7]: true 
  prMes[8]: 2.3510959595916994E7 m
  cpMes[8]: 1.2355092645045505E8 cycles
  doMes[8]: -2702.039306640625 Hz
  gnssId[8]: 0 
  svId[8]: 23 
  sigId[8]: 0 
  freqId[8]: 0 
  lockTime[8]: 64500 ms
  cno[8]: 46 dBHz
  prStdev[8]: 0.08 m
  cpStdev[8]: 0.004 cycles
  doStdev[8]: 0.128 Hz
  trkStat:prValid[8]: true 
  trkStat:cpValid[8]: true 
  trkStat:halfCyc[8]: true 
  trkStat:subHalfCyc[8]: false 
  prMes[9]: 2.389005636476038E7 m
  cpMes[9]: 1.255430949813423E8 cycles
  doMes[9]: 2593.672119140625 Hz
  gnssId[9]: 0 
  svId[9]: 28 
  sigId[9]: 0 
  freqId[9]: 0 
  lockTime[9]: 64500 ms
  cno[9]: 40 dBHz
  prStdev[9]: 0.16 m
  cpStdev[9]: 0.008 cycles
  doStdev[9]: 0.256 Hz
  trkStat:prValid[9]: true 
  trkStat:cpValid[9]: true 
  trkStat:halfCyc[9]: true 
  trkStat:subHalfCyc[9]: true 
  prMes[10]: 2.6102487537268907E7 m
  cpMes[10]: 1.3716946964079377E8 cycles
  doMes[10]: -277.646728515625 Hz
  gnssId[10]: 0 
  svId[10]: 27 
  sigId[10]: 0 
  freqId[10]: 0 
  lockTime[10]: 64500 ms
  cno[10]: 31 dBHz
  prStdev[10]: 0.64 m
  cpStdev[10]: 0.02 cycles
  doStdev[10]: 0.512 Hz
  trkStat:prValid[10]: true 
  trkStat:cpValid[10]: true 
  trkStat:halfCyc[10]: true 
  trkStat:subHalfCyc[10]: true 
  prMes[11]: 2.5749342019301876E7 m
  cpMes[11]: 1.353136725497585E8 cycles
  doMes[11]: -1988.387939453125 Hz
  gnssId[11]: 0 
  svId[11]: 2 
  sigId[11]: 0 
  freqId[11]: 0 
  lockTime[11]: 64500 ms
  cno[11]: 35 dBHz
  prStdev[11]: 0.32 m
  cpStdev[11]: 0.012 cycles
  doStdev[11]: 0.512 Hz
  trkStat:prValid[11]: true 
  trkStat:cpValid[11]: true 
  trkStat:halfCyc[11]: true 
  trkStat:subHalfCyc[11]: false 
  prMes[12]: 2.1776395955387287E7 m
  cpMes[12]: 8.917069947003478E7 cycles
  doMes[12]: -1100.5677490234375 Hz
  gnssId[12]: 0 
  svId[12]: 7 
  sigId[12]: 3 
  freqId[12]: 0 
  lockTime[12]: 64500 ms
  cno[12]: 42 dBHz
  prStdev[12]: 0.16 m
  cpStdev[12]: 0.004 cycles
  doStdev[12]: 0.128 Hz
  trkStat:prValid[12]: true 
  trkStat:cpValid[12]: true 
  trkStat:halfCyc[12]: true 
  trkStat:subHalfCyc[12]: true 
  prMes[13]: 2.642719750637318E7 m
  cpMes[13]: 1.0821491505325723E8 cycles
  doMes[13]: -3583.064697265625 Hz
  gnssId[13]: 0 
  svId[13]: 3 
  sigId[13]: 3 
  freqId[13]: 0 
  lockTime[13]: 64500 ms
  cno[13]: 36 dBHz
  prStdev[13]: 0.32 m
  cpStdev[13]: 0.008 cycles
  doStdev[13]: 0.256 Hz
  trkStat:prValid[13]: true 
  trkStat:cpValid[13]: true 
  trkStat:halfCyc[13]: true 
  trkStat:subHalfCyc[13]: false 
  prMes[14]: 2.4163125579305362E7 m
  cpMes[14]: 9.894394841776207E7 cycles
  doMes[14]: -2377.57470703125 Hz
  gnssId[14]: 0 
  svId[14]: 4 
  sigId[14]: 3 
  freqId[14]: 0 
  lockTime[14]: 64500 ms
  cno[14]: 40 dBHz
  prStdev[14]: 0.32 m
  cpStdev[14]: 0.008 cycles
  doStdev[14]: 0.128 Hz
  trkStat:prValid[14]: true 
  trkStat:cpValid[14]: true 
  trkStat:halfCyc[14]: true 
  trkStat:subHalfCyc[14]: false 
  prMes[15]: 2.4359212757117666E7 m
  cpMes[15]: 9.974691774772021E7 cycles
  doMes[15]: 1563.13623046875 Hz
  gnssId[15]: 0 
  svId[15]: 5 
  sigId[15]: 3 
  freqId[15]: 0 
  lockTime[15]: 64500 ms
  cno[15]: 38 dBHz
  prStdev[15]: 0.32 m
  cpStdev[15]: 0.008 cycles
  doStdev[15]: 0.256 Hz
  trkStat:prValid[15]: true 
  trkStat:cpValid[15]: true 
  trkStat:halfCyc[15]: true 
  trkStat:subHalfCyc[15]: true 
  prMes[16]: 2.5398688763238776E7 m
  cpMes[16]: 1.0400338610933357E8 cycles
  doMes[16]: -2605.042724609375 Hz
  gnssId[16]: 0 
  svId[16]: 6 
  sigId[16]: 3 
  freqId[16]: 0 
  lockTime[16]: 64500 ms
  cno[16]: 33 dBHz
  prStdev[16]: 0.32 m
  cpStdev[16]: 0.016 cycles
  doStdev[16]: 0.512 Hz
  trkStat:prValid[16]: true 
  trkStat:cpValid[16]: true 
  trkStat:halfCyc[16]: true 
  trkStat:subHalfCyc[16]: true 
  prMes[17]: 2.5561384973976113E7 m
  cpMes[17]: 1.0466959230674842E8 cycles
  doMes[17]: 597.2688598632812 Hz
  gnssId[17]: 0 
  svId[17]: 8 
  sigId[17]: 3 
  freqId[17]: 0 
  lockTime[17]: 64500 ms
  cno[17]: 35 dBHz
  prStdev[17]: 0.32 m
  cpStdev[17]: 0.012 cycles
  doStdev[17]: 0.256 Hz
  trkStat:prValid[17]: true 
  trkStat:cpValid[17]: true 
  trkStat:halfCyc[17]: true 
  trkStat:subHalfCyc[17]: false 
  prMes[18]: 2.2021532989714272E7 m
  cpMes[18]: 9.017449959206714E7 cycles
  doMes[18]: -1472.271240234375 Hz
  gnssId[18]: 0 
  svId[18]: 9 
  sigId[18]: 3 
  freqId[18]: 0 
  lockTime[18]: 64500 ms
  cno[18]: 42 dBHz
  prStdev[18]: 0.16 m
  cpStdev[18]: 0.004 cycles
  doStdev[18]: 0.128 Hz
  trkStat:prValid[18]: true 
  trkStat:cpValid[18]: true 
  trkStat:halfCyc[18]: true 
  trkStat:subHalfCyc[18]: false 
  prMes[19]: 2.2115158801889554E7 m
  cpMes[19]: 9.055788268392286E7 cycles
  doMes[19]: 252.478271484375 Hz
  gnssId[19]: 0 
  svId[19]: 30 
  sigId[19]: 3 
  freqId[19]: 0 
  lockTime[19]: 64500 ms
  cno[19]: 40 dBHz
  prStdev[19]: 0.16 m
  cpStdev[19]: 0.004 cycles
  doStdev[19]: 0.128 Hz
  trkStat:prValid[19]: true 
  trkStat:cpValid[19]: true 
  trkStat:halfCyc[19]: true 
  trkStat:subHalfCyc[19]: false 
  prMes[20]: 2.6102467042435452E7 m
  cpMes[20]: 1.068852381212162E8 cycles
  doMes[20]: -216.75634765625 Hz
  gnssId[20]: 0 
  svId[20]: 27 
  sigId[20]: 3 
  freqId[20]: 0 
  lockTime[20]: 1960 ms
  cno[20]: 28 dBHz
  prStdev[20]: 1.28 m
  cpStdev[20]: 0.028 cycles
  doStdev[20]: 1.024 Hz
  trkStat:prValid[20]: true 
  trkStat:cpValid[20]: true 
  trkStat:halfCyc[20]: true 
  trkStat:subHalfCyc[20]: false 
no decoder for 01:07 len=92
no decoder for 01:43 len=408
UBX-NAV-POSECEF
  iTOW: 29999000 ms
  ecefX: 444008029 cm
  ecefY: 308657908 cm
  ecefZ: 337101606 cm
  pAcc: 156 cm
UBX-NAV-POSLLH
  iTOW: 29999000 ms
  lon: 34.8055935 degrees
  lat: 32.1121884 degrees
  height: 77.304 m
  hMSL: 59.735 m
  hAcc: 0.994 m
  vAcc: 1.204 m
UBX-NAV-TIMEGPS
  iTOW: 29999000 ms
  fTOW: 92019 ns
  week: 2092 weeks
  leapS: 18 s
  valid:towValid: true 
  valid:weekValid: true 
  valid:leapSValid: true 
  tAcc: 3 ns
UBX-NAV-TIMEUTC
  iTOW: 29999000 ms
  tAcc: 3 ns
  nano: 92017 ns
  year: 2020 y
  month: 2 months
  day: 9 d
  hour: 8 h
  min: 19 min
  sec: 41 s
  valid:validTOW: true 
  valid:validWKN: true 
  valid:validUTC: true 
no decoder for 02:14 len=548
UBX-RXM-RAWX
  recvTOW: 30000.003 s
  week: 2092 weeks
  leapS: 18 s
  numMeas: 21 
  recStat:leapSec: true 
  recStat:clkReset: false 
  version: 1 
  prMes[0]: 2.1776690038154706E7 m
  cpMes[0]: 1.1443728240106124E8 cycles
  doMes[0]: -1412.53662109375 Hz
  gnssId[0]: 0 
  svId[0]: 7 
  sigId[0]: 0 
  freqId[0]: 0 
  lockTime[0]: 64500 ms
  cno[0]: 48 dBHz
  prStdev[0]: 0.08 m
  cpStdev[0]: 0.004 cycles
  doStdev[0]: 0.032 Hz
  trkStat:prValid[0]: true 
  trkStat:cpValid[0]: true 
  trkStat:halfCyc[0]: true 
  trkStat:subHalfCyc[0]: false 
  prMes[1]: 2.642809038645205E7 m
  cpMes[1]: 1.3888051843508518E8 cycles
  doMes[1]: -4598.33251953125 Hz
  gnssId[1]: 0 
  svId[1]: 3 
  sigId[1]: 0 
  freqId[1]: 0 
  lockTime[1]: 64500 ms
  cno[1]: 40 dBHz
  prStdev[1]: 0.16 m
  cpStdev[1]: 0.004 cycles
  doStdev[1]: 0.128 Hz
  trkStat:prValid[1]: true 
  trkStat:cpValid[1]: true 
  trkStat:halfCyc[1]: true 
  trkStat:subHalfCyc[1]: true 
  prMes[2]: 2.4163727632519763E7 m
  cpMes[2]: 1.2698124434277894E8 cycles
  doMes[2]: -3051.5185546875 Hz
  gnssId[2]: 0 
  svId[2]: 4 
  sigId[2]: 0 
  freqId[2]: 0 
  lockTime[2]: 64500 ms
  cno[2]: 43 dBHz
  prStdev[2]: 0.08 m
  cpStdev[2]: 0.004 cycles
  doStdev[2]: 0.128 Hz
  trkStat:prValid[2]: true 
  trkStat:cpValid[2]: true 
  trkStat:halfCyc[2]: true 
  trkStat:subHalfCyc[2]: false 
  prMes[3]: 2.4358855440358076E7 m
  cpMes[3]: 1.2800666257935311E8 cycles
  doMes[3]: 2005.454345703125 Hz
  gnssId[3]: 0 
  svId[3]: 5 
  sigId[3]: 0 
  freqId[3]: 0 
  lockTime[3]: 64500 ms
  cno[3]: 44 dBHz
  prStdev[3]: 0.08 m
  cpStdev[3]: 0.004 cycles
  doStdev[3]: 0.128 Hz
  trkStat:prValid[3]: true 
  trkStat:cpValid[3]: true 
  trkStat:halfCyc[3]: true 
  trkStat:subHalfCyc[3]: false 
  prMes[4]: 2.5399346458426863E7 m
  cpMes[4]: 1.3347445638354284E8 cycles
  doMes[4]: -3343.97216796875 Hz
  gnssId[4]: 0 
  svId[4]: 6 
  sigId[4]: 0 
  freqId[4]: 0 
  lockTime[4]: 64500 ms
  cno[4]: 39 dBHz
  prStdev[4]: 0.16 m
  cpStdev[4]: 0.008 cycles
  doStdev[4]: 0.256 Hz
  trkStat:prValid[4]: true 
  trkStat:cpValid[4]: true 
  trkStat:halfCyc[4]: true 
  trkStat:subHalfCyc[4]: false 
  prMes[5]: 2.5561256235036064E7 m
  cpMes[5]: 1.343253145359656E8 cycles
  doMes[5]: 766.762451171875 Hz
  gnssId[5]: 0 
  svId[5]: 8 
  sigId[5]: 0 
  freqId[5]: 0 
  lockTime[5]: 64500 ms
  cno[5]: 40 dBHz
  prStdev[5]: 0.16 m
  cpStdev[5]: 0.008 cycles
  doStdev[5]: 0.256 Hz
  trkStat:prValid[5]: true 
  trkStat:cpValid[5]: true 
  trkStat:halfCyc[5]: true 
  trkStat:subHalfCyc[5]: true 
  prMes[6]: 2.2021916687865492E7 m
  cpMes[6]: 1.15725945583249E8 cycles
  doMes[6]: -1889.672607421875 Hz
  gnssId[6]: 0 
  svId[6]: 9 
  sigId[6]: 0 
  freqId[6]: 0 
  lockTime[6]: 64500 ms
  cno[6]: 51 dBHz
  prStdev[6]: 0.08 m
  cpStdev[6]: 0.004 cycles
  doStdev[6]: 0.032 Hz
  trkStat:prValid[6]: true 
  trkStat:cpValid[6]: true 
  trkStat:halfCyc[6]: true 
  trkStat:subHalfCyc[6]: true 
  prMes[7]: 2.2115119435635675E7 m
  cpMes[7]: 1.1621574529789405E8 cycles
  doMes[7]: 323.91943359375 Hz
  gnssId[7]: 0 
  svId[7]: 30 
  sigId[7]: 0 
  freqId[7]: 0 
  lockTime[7]: 64500 ms
  cno[7]: 46 dBHz
  prStdev[7]: 0.08 m
  cpStdev[7]: 0.004 cycles
  doStdev[7]: 0.064 Hz
  trkStat:prValid[7]: true 
  trkStat:cpValid[7]: true 
  trkStat:halfCyc[7]: true 
  trkStat:subHalfCyc[7]: true 
  prMes[8]: 2.3511473737685133E7 m
  cpMes[8]: 1.2355362858946829E8 cycles
  doMes[8]: -2702.378662109375 Hz
  gnssId[8]: 0 
  svId[8]: 23 
  sigId[8]: 0 
  freqId[8]: 0 
  lockTime[8]: 64500 ms
  cno[8]: 46 dBHz
  prStdev[8]: 0.08 m
  cpStdev[8]: 0.004 cycles
  doStdev[8]: 0.064 Hz
  trkStat:prValid[8]: true 
  trkStat:cpValid[8]: true 
  trkStat:halfCyc[8]: true 
  trkStat:subHalfCyc[8]: false 
  prMes[9]: 2.388956281536599E7 m
  cpMes[9]: 1.2554050126771629E8 cycles
  doMes[9]: 2593.660400390625 Hz
  gnssId[9]: 0 
  svId[9]: 28 
  sigId[9]: 0 
  freqId[9]: 0 
  lockTime[9]: 64500 ms
  cno[9]: 40 dBHz
  prStdev[9]: 0.16 m
  cpStdev[9]: 0.008 cycles
  doStdev[9]: 0.256 Hz
  trkStat:prValid[9]: true 
  trkStat:cpValid[9]: true 
  trkStat:halfCyc[9]: true 
  trkStat:subHalfCyc[9]: true 
  prMes[10]: 2.6102540484091364E7 m
  cpMes[10]: 1.3716974783869168E8 cycles
  doMes[10]: -278.62109375 Hz
  gnssId[10]: 0 
  svId[10]: 27 
  sigId[10]: 0 
  freqId[10]: 0 
  lockTime[10]: 64500 ms
  cno[10]: 31 dBHz
  prStdev[10]: 0.64 m
  cpStdev[10]: 0.016 cycles
  doStdev[10]: 0.512 Hz
  trkStat:prValid[10]: true 
  trkStat:cpValid[10]: true 
  trkStat:halfCyc[10]: true 
  trkStat:subHalfCyc[10]: true 
  prMes[11]: 2.5749720393140934E7 m
  cpMes[11]: 1.353156608383925E8 cycles
  doMes[11]: -1988.021240234375 Hz
  gnssId[11]: 0 
  svId[11]: 2 
  sigId[11]: 0 
  freqId[11]: 0 
  lockTime[11]: 64500 ms
  cno[11]: 35 dBHz
  prStdev[11]: 0.32 m
  cpStdev[11]: 0.016 cycles
  doStdev[11]: 0.512 Hz
  trkStat:prValid[11]: true 
  trkStat:cpValid[11]: true 
  trkStat:halfCyc[11]: true 
  trkStat:subHalfCyc[11]: false 
  prMes[12]: 2.1776664717498437E7 m
  cpMes[12]: 8.917179995083547E7 cycles
  doMes[12]: -1100.69580078125 Hz
  gnssId[12]: 0 
  svId[12]: 7 
  sigId[12]: 3 
  freqId[12]: 0 
  lockTime[12]: 64500 ms
  cno[12]: 41 dBHz
  prStdev[12]: 0.16 m
  cpStdev[12]: 0.004 cycles
  doStdev[12]: 0.128 Hz
  trkStat:prValid[12]: true 
  trkStat:cpValid[12]: true 
  trkStat:halfCyc[12]: true 
  trkStat:subHalfCyc[12]: true 
  prMes[13]: 2.6428072664807197E7 m
  cpMes[13]: 1.0821849812235466E8 cycles
  doMes[13]: -3583.27978515625 Hz
  gnssId[13]: 0 
  svId[13]: 3 
  sigId[13]: 3 
  freqId[13]: 0 
  lockTime[13]: 64500 ms
  cno[13]: 36 dBHz
  prStdev[13]: 0.32 m
  cpStdev[13]: 0.008 cycles
  doStdev[13]: 0.256 Hz
  trkStat:prValid[13]: true 
  trkStat:cpValid[13]: true 
  trkStat:halfCyc[13]: true 
  trkStat:subHalfCyc[13]: false 
  prMes[14]: 2.4163706251075644E7 m
  cpMes[14]: 9.894632604768342E7 cycles
  doMes[14]: -2377.703857421875 Hz
  gnssId[14]: 0 
  svId[14]: 4 
  sigId[14]: 3 
  freqId[14]: 0 
  lockTime[14]: 64500 ms
  cno[14]: 39 dBHz
  prStdev[14]: 0.16 m
  cpStdev[14]: 0.004 cycles
  doStdev[14]: 0.128 Hz
  trkStat:prValid[14]: true 
  trkStat:cpValid[14]: true 
  trkStat:halfCyc[14]: true 
  trkStat:subHalfCyc[14]: false 
  prMes[15]: 2.4358831069970865E7 m
  cpMes[15]: 9.974535482513888E7 cycles
  doMes[15]: 1562.668212890625 Hz
  gnssId[15]: 0 
  svId[15]: 5 
  sigId[15]: 3 
  freqId[15]: 0 
  lockTime[15]: 64500 ms
  cno[15]: 38 dBHz
  prStdev[15]: 0.32 m
  cpStdev[15]: 0.008 cycles
  doStdev[15]: 0.256 Hz
  trkStat:prValid[15]: true 
  trkStat:cpValid[15]: true 
  trkStat:halfCyc[15]: true 
  trkStat:subHalfCyc[15]: true 
  prMes[16]: 2.5399325067838833E7 m
  cpMes[16]: 1.0400599168748157E8 cycles
  doMes[16]: -2605.672607421875 Hz
  gnssId[16]: 0 
  svId[16]: 6 
  sigId[16]: 3 
  freqId[16]: 0 
  lockTime[16]: 64500 ms
  cno[16]: 33 dBHz
  prStdev[16]: 0.64 m
  cpStdev[16]: 0.012 cycles
  doStdev[16]: 0.512 Hz
  trkStat:prValid[16]: true 
  trkStat:cpValid[16]: true 
  trkStat:halfCyc[16]: true 
  trkStat:subHalfCyc[16]: true 
  prMes[17]: 2.5561238999693878E7 m
  cpMes[17]: 1.0466899468703312E8 cycles
  doMes[17]: 597.095703125 Hz
  gnssId[17]: 0 
  svId[17]: 8 
  sigId[17]: 3 
  freqId[17]: 0 
  lockTime[17]: 64500 ms
  cno[17]: 34 dBHz
  prStdev[17]: 0.32 m
  cpStdev[17]: 0.012 cycles
  doStdev[17]: 0.256 Hz
  trkStat:prValid[17]: true 
  trkStat:cpValid[17]: true 
  trkStat:halfCyc[17]: true 
  trkStat:subHalfCyc[17]: false 
  prMes[18]: 2.2021892505521823E7 m
  cpMes[18]: 9.017597182413928E7 cycles
  doMes[18]: -1472.234375 Hz
  gnssId[18]: 0 
  svId[18]: 9 
  sigId[18]: 3 
  freqId[18]: 0 
  lockTime[18]: 64500 ms
  cno[18]: 42 dBHz
  prStdev[18]: 0.16 m
  cpStdev[18]: 0.004 cycles
  doStdev[18]: 0.128 Hz
  trkStat:prValid[18]: true 
  trkStat:cpValid[18]: true 
  trkStat:halfCyc[18]: true 
  trkStat:subHalfCyc[18]: false 
  prMes[19]: 2.21150971359611E7 m
  cpMes[19]: 9.05576301158359E7 cycles
  doMes[19]: 252.3623046875 Hz
  gnssId[19]: 0 
  svId[19]: 30 
  sigId[19]: 3 
  freqId[19]: 0 
  lockTime[19]: 64500 ms
  cno[19]: 40 dBHz
  prStdev[19]: 0.16 m
  cpStdev[19]: 0.008 cycles
  doStdev[19]: 0.128 Hz
  trkStat:prValid[19]: true 
  trkStat:cpValid[19]: true 
  trkStat:halfCyc[19]: true 
  trkStat:subHalfCyc[19]: false 
  prMes[20]: 2.6102519919666443E7 m
  cpMes[20]: 1.0688545485096075E8 cycles
  doMes[20]: -216.938232421875 Hz
  gnssId[20]: 0 
  svId[20]: 27 
  sigId[20]: 3 
  freqId[20]: 0 
  lockTime[20]: 2960 ms
  cno[20]: 29 dBHz
  prStdev[20]: 0.64 m
  cpStdev[20]: 0.024 cycles
  doStdev[20]: 0.512 Hz
  trkStat:prValid[20]: true 
  trkStat:cpValid[20]: true 
  trkStat:halfCyc[20]: true 
  trkStat:subHalfCyc[20]: false 
no decoder for 01:07 len=92
no decoder for 01:43 len=392
UBX-NAV-POSECEF
  iTOW: 30000000 ms
  ecefX: 444008029 cm
  ecefY: 308657907 cm
  ecefZ: 337101606 cm
  pAcc: 156 cm
UBX-NAV-POSLLH
  iTOW: 30000000 ms
  lon: 34.8055934 degrees
  lat: 32.1121885 degrees
  height: 77.298 m
  hMSL: 59.729 m
  hAcc: 0.994 m
  vAcc: 1.205 m
UBX-NAV-TIMEGPS
  iTOW: 30000000 ms
  fTOW: 91464 ns
  week: 2092 weeks
  leapS: 18 s
  valid:towValid: true 
  valid:weekValid: true 
  valid:leapSValid: true 
  tAcc: 3 ns
UBX-NAV-TIMEUTC
  iTOW: 30000000 ms
  tAcc: 3 ns
  nano: 91462 ns
  year: 2020 y
  month: 2 months
  day: 9 d
  hour: 8 h
  min: 19 min
  sec: 42 s
  valid:validTOW: true 
  valid:validWKN: true 
  valid:validUTC: true 
no decoder for 02:14 len=548
UBX-RXM-RAWX
  recvTOW: 30001.003 s
  week: 2092 weeks
  leapS: 18 s
  numMeas: 21 
  recStat:leapSec: true 
  recStat:clkReset: false 
  version: 1 
  prMes[0]: 2.1776958860294607E7 m
  cpMes[0]: 1.1443869499757898E8 cycles
  doMes[0]: -1412.701416015625 Hz
  gnssId[0]: 0 
  svId[0]: 7 
  sigId[0]: 0 
  freqId[0]: 0 
  lockTime[0]: 64500 ms
  cno[0]: 48 dBHz
  prStdev[0]: 0.08 m
  cpStdev[0]: 0.004 cycles
  doStdev[0]: 0.064 Hz
  trkStat:prValid[0]: true 
  trkStat:cpValid[0]: true 
  trkStat:halfCyc[0]: true 
  trkStat:subHalfCyc[0]: false 
  prMes[1]: 2.6428965468663517E7 m
  cpMes[1]: 1.3888511675229648E8 cycles
  doMes[1]: -4598.57421875 Hz
  gnssId[1]: 0 
  svId[1]: 3 
  sigId[1]: 0 
  freqId[1]: 0 
  lockTime[1]: 64500 ms
  cno[1]: 40 dBHz
  prStdev[1]: 0.16 m
  cpStdev[1]: 0.008 cycles
  doStdev[1]: 0.256 Hz
  trkStat:prValid[1]: true 
  trkStat:cpValid[1]: true 
  trkStat:halfCyc[1]: true 
  trkStat:subHalfCyc[1]: true 
  prMes[2]: 2.416430833667765E7 m
  cpMes[2]: 1.2698429587337019E8 cycles
  doMes[2]: -3051.487060546875 Hz
  gnssId[2]: 0 
  svId[2]: 4 
  sigId[2]: 0 
  freqId[2]: 0 
  lockTime[2]: 64500 ms
  cno[2]: 43 dBHz
  prStdev[2]: 0.08 m
  cpStdev[2]: 0.004 cycles
  doStdev[2]: 0.128 Hz
  trkStat:prValid[2]: true 
  trkStat:cpValid[2]: true 
  trkStat:halfCyc[2]: true 
  trkStat:subHalfCyc[2]: false 
  prMes[3]: 2.435847370881792E7 m
  cpMes[3]: 1.2800465722542167E8 cycles
  doMes[3]: 2005.311279296875 Hz
  gnssId[3]: 0 
  svId[3]: 5 
  sigId[3]: 0 
  freqId[3]: 0 
  lockTime[3]: 64500 ms
  cno[3]: 44 dBHz
  prStdev[3]: 0.08 m
  cpStdev[3]: 0.004 cycles
  doStdev[3]: 0.128 Hz
  trkStat:prValid[3]: true 
  trkStat:cpValid[3]: true 
  trkStat:halfCyc[3]: true 
  trkStat:subHalfCyc[3]: false 
  prMes[4]: 2.5399982801557004E7 m
  cpMes[4]: 1.3347780029019013E8 cycles
  doMes[4]: -3343.853759765625 Hz
  gnssId[4]: 0 
  svId[4]: 6 
  sigId[4]: 0 
  freqId[4]: 0 
  lockTime[4]: 64500 ms
  cno[4]: 39 dBHz
  prStdev[4]: 0.16 m
  cpStdev[4]: 0.008 cycles
  doStdev[4]: 0.256 Hz
  trkStat:prValid[4]: true 
  trkStat:cpValid[4]: true 
  trkStat:halfCyc[4]: true 
  trkStat:subHalfCyc[4]: false 
  prMes[5]: 2.5561110300330926E7 m
  cpMes[5]: 1.3432454792341232E8 cycles
  doMes[5]: 766.577392578125 Hz
  gnssId[5]: 0 
  svId[5]: 8 
  sigId[5]: 0 
  freqId[5]: 0 
  lockTime[5]: 64500 ms
  cno[5]: 39 dBHz
  prStdev[5]: 0.16 m
  cpStdev[5]: 0.008 cycles
  doStdev[5]: 0.128 Hz
  trkStat:prValid[5]: true 
  trkStat:cpValid[5]: true 
  trkStat:halfCyc[5]: true 
  trkStat:subHalfCyc[5]: true 
  prMes[6]: 2.2022276315424237E7 m
  cpMes[6]: 1.157278353116311E8 cycles
  doMes[6]: -1889.79833984375 Hz
  gnssId[6]: 0 
  svId[6]: 9 
  sigId[6]: 0 
  freqId[6]: 0 
  lockTime[6]: 64500 ms
  cno[6]: 51 dBHz
  prStdev[6]: 0.08 m
  cpStdev[6]: 0.004 cycles
  doStdev[6]: 0.032 Hz
  trkStat:prValid[6]: true 
  trkStat:cpValid[6]: true 
  trkStat:halfCyc[6]: true 
  trkStat:subHalfCyc[6]: true 
  prMes[7]: 2.2115057845231764E7 m
  cpMes[7]: 1.1621542154680876E8 cycles
  doMes[7]: 323.77880859375 Hz
  gnssId[7]: 0 
  svId[7]: 30 
  sigId[7]: 0 
  freqId[7]: 0 
  lockTime[7]: 64500 ms
  cno[7]: 46 dBHz
  prStdev[7]: 0.08 m
  cpStdev[7]: 0.004 cycles
  doStdev[7]: 0.128 Hz
  trkStat:prValid[7]: true 
  trkStat:cpValid[7]: true 
  trkStat:halfCyc[7]: true 
  trkStat:subHalfCyc[7]: true 
  prMes[8]: 2.3511988001744397E7 m
  cpMes[8]: 1.2355633104539753E8 cycles
  doMes[8]: -2702.559326171875 Hz
  gnssId[8]: 0 
  svId[8]: 23 
  sigId[8]: 0 
  freqId[8]: 0 
  lockTime[8]: 64500 ms
  cno[8]: 46 dBHz
  prStdev[8]: 0.08 m
  cpStdev[8]: 0.004 cycles
  doStdev[8]: 0.064 Hz
  trkStat:prValid[8]: true 
  trkStat:cpValid[8]: true 
  trkStat:halfCyc[8]: true 
  trkStat:subHalfCyc[8]: false 
  prMes[9]: 2.3889069189260438E7 m
  cpMes[9]: 1.2553790777263999E8 cycles
  doMes[9]: 2593.931884765625 Hz
  gnssId[9]: 0 
  svId[9]: 28 
  sigId[9]: 0 
  freqId[9]: 0 
  lockTime[9]: 64500 ms
  cno[9]: 40 dBHz
  prStdev[9]: 0.16 m
  cpStdev[9]: 0.008 cycles
  doStdev[9]: 0.256 Hz
  trkStat:prValid[9]: true 
  trkStat:cpValid[9]: true 
  trkStat:halfCyc[9]: true 
  trkStat:subHalfCyc[9]: true 
  prMes[10]: 2.6102593452761497E7 m
  cpMes[10]: 1.371700265245476E8 cycles
  doMes[10]: -278.57373046875 Hz
  gnssId[10]: 0 
  svId[10]: 27 
  sigId[10]: 0 
  freqId[10]: 0 
  lockTime[10]: 64500 ms
  cno[10]: 32 dBHz
  prStdev[10]: 0.32 m
  cpStdev[10]: 0.016 cycles
  doStdev[10]: 0.512 Hz
  trkStat:prValid[10]: true 
  trkStat:cpValid[10]: true 
  trkStat:halfCyc[10]: true 
  trkStat:subHalfCyc[10]: true 
  prMes[11]: 2.57500987752863E7 m
  cpMes[11]: 1.3531764951492417E8 cycles
  doMes[11]: -1988.553955078125 Hz
  gnssId[11]: 0 
  svId[11]: 2 
  sigId[11]: 0 
  freqId[11]: 0 
  lockTime[11]: 64500 ms
  cno[11]: 35 dBHz
  prStdev[11]: 0.32 m
  cpStdev[11]: 0.012 cycles
  doStdev[11]: 0.512 Hz
  trkStat:prValid[11]: true 
  trkStat:cpValid[11]: true 
  trkStat:halfCyc[11]: true 
  trkStat:subHalfCyc[11]: false 
  prMes[12]: 2.177693341232155E7 m
  cpMes[12]: 8.917290067029852E7 cycles
  doMes[12]: -1100.59814453125 Hz
  gnssId[12]: 0 
  svId[12]: 7 
  sigId[12]: 3 
  freqId[12]: 0 
  lockTime[12]: 64500 ms
  cno[12]: 44 dBHz
  prStdev[12]: 0.16 m
  cpStdev[12]: 0.004 cycles
  doStdev[12]: 0.128 Hz
  trkStat:prValid[12]: true 
  trkStat:cpValid[12]: true 
  trkStat:halfCyc[12]: true 
  trkStat:subHalfCyc[12]: true 
  prMes[13]: 2.6428947732779287E7 m
  cpMes[13]: 1.0822208119123556E8 cycles
  doMes[13]: -3582.818603515625 Hz
  gnssId[13]: 0 
  svId[13]: 3 
  sigId[13]: 3 
  freqId[13]: 0 
  lockTime[13]: 64500 ms
  cno[13]: 39 dBHz
  prStdev[13]: 0.32 m
  cpStdev[13]: 0.012 cycles
  doStdev[13]: 0.256 Hz
  trkStat:prValid[13]: true 
  trkStat:cpValid[13]: true 
  trkStat:halfCyc[13]: true 
  trkStat:subHalfCyc[13]: false 
  prMes[14]: 2.416428697072933E7 m
  cpMes[14]: 9.894870385579814E7 cycles
  doMes[14]: -2377.86328125 Hz
  gnssId[14]: 0 
  svId[14]: 4 
  sigId[14]: 3 
  freqId[14]: 0 
  lockTime[14]: 64500 ms
  cno[14]: 43 dBHz
  prStdev[14]: 0.16 m
  cpStdev[14]: 0.008 cycles
  doStdev[14]: 0.128 Hz
  trkStat:prValid[14]: true 
  trkStat:cpValid[14]: true 
  trkStat:halfCyc[14]: true 
  trkStat:subHalfCyc[14]: false 
  prMes[15]: 2.4358449503370166E7 m
  cpMes[15]: 9.974379221139555E7 cycles
  doMes[15]: 1562.64111328125 Hz
  gnssId[15]: 0 
  svId[15]: 5 
  sigId[15]: 3 
  freqId[15]: 0 
  lockTime[15]: 64500 ms
  cno[15]: 41 dBHz
  prStdev[15]: 0.32 m
  cpStdev[15]: 0.008 cycles
  doStdev[15]: 0.256 Hz
  trkStat:prValid[15]: true 
  trkStat:cpValid[15]: true 
  trkStat:halfCyc[15]: true 
  trkStat:subHalfCyc[15]: true 
  prMes[16]: 2.539996136252717E7 m
  cpMes[16]: 1.040085973236905E8 cycles
  doMes[16]: -2605.369873046875 Hz
  gnssId[16]: 0 
  svId[16]: 6 
  sigId[16]: 3 
  freqId[16]: 0 
  lockTime[16]: 64500 ms
  cno[16]: 36 dBHz
  prStdev[16]: 0.64 m
  cpStdev[16]: 0.016 cycles
  doStdev[16]: 0.512 Hz
  trkStat:prValid[16]: true 
  trkStat:cpValid[16]: true 
  trkStat:halfCyc[16]: true 
  trkStat:subHalfCyc[16]: true 
  prMes[17]: 2.556109310728807E7 m
  cpMes[17]: 1.0466839733919816E8 cycles
  doMes[17]: 596.896484375 Hz
  gnssId[17]: 0 
  svId[17]: 8 
  sigId[17]: 3 
  freqId[17]: 0 
  lockTime[17]: 64500 ms
  cno[17]: 38 dBHz
  prStdev[17]: 0.32 m
  cpStdev[17]: 0.012 cycles
  doStdev[17]: 0.256 Hz
  trkStat:prValid[17]: true 
  trkStat:cpValid[17]: true 
  trkStat:halfCyc[17]: true 
  trkStat:subHalfCyc[17]: false 
  prMes[18]: 2.2022252166933995E7 m
  cpMes[18]: 9.017744435011995E7 cycles
  doMes[18]: -1472.6116943359375 Hz
  gnssId[18]: 0 
  svId[18]: 9 
  sigId[18]: 3 
  freqId[18]: 0 
  lockTime[18]: 64500 ms
  cno[18]: 44 dBHz
  prStdev[18]: 0.16 m
  cpStdev[18]: 0.004 cycles
  doStdev[18]: 0.128 Hz
  trkStat:prValid[18]: true 
  trkStat:cpValid[18]: true 
  trkStat:halfCyc[18]: true 
  trkStat:subHalfCyc[18]: false 
  prMes[19]: 2.2115035523360513E7 m
  cpMes[19]: 9.055737782801308E7 cycles
  doMes[19]: 252.5732421875 Hz
  gnssId[19]: 0 
  svId[19]: 30 
  sigId[19]: 3 
  freqId[19]: 0 
  lockTime[19]: 64500 ms
  cno[19]: 43 dBHz
  prStdev[19]: 0.16 m
  cpStdev[19]: 0.004 cycles
  doStdev[19]: 0.128 Hz
  trkStat:prValid[19]: true 
  trkStat:cpValid[19]: true 
  trkStat:halfCyc[19]: true 
  trkStat:subHalfCyc[19]: false 
  prMes[20]: 2.6102572917373735E7 m
  cpMes[20]: 1.0688567205918802E8 cycles
  doMes[20]: -216.60546875 Hz
  gnssId[20]: 0 
  svId[20]: 27 
  sigId[20]: 3 
  freqId[20]: 0 
  lockTime[20]: 3960 ms
  cno[20]: 29 dBHz
  prStdev[20]: 1.28 m
  cpStdev[20]: 0.028 cycles
  doStdev[20]: 1.024 Hz
  trkStat:prValid[20]: true 
  trkStat:cpValid[20]: true 
  trkStat:halfCyc[20]: true 
  trkStat:subHalfCyc[20]: false 
no decoder for 01:07 len=92
no decoder for 01:43 len=408
UBX-NAV-POSECEF
  iTOW: 30001000 ms
  ecefX: 444008028 cm
  ecefY: 308657906 cm
  ecefZ: 337101606 cm
  pAcc: 156 cm
UBX-NAV-POSLLH
  iTOW: 30001000 ms
  lon: 34.8055933 degrees
  lat: 32.1121885 degrees
  height: 77.29 m
  hMSL: 59.721000000000004 m
  hAcc: 0.993 m
  vAcc: 1.205 m
UBX-NAV-TIMEGPS
  iTOW: 30001000 ms
  fTOW: 90909 ns
  week: 2092 weeks
  leapS: 18 s
  valid:towValid: true 
  valid:weekValid: true 
  valid:leapSValid: true 
  tAcc: 3 ns
UBX-NAV-TIMEUTC
  iTOW: 30001000 ms
  tAcc: 3 ns
  nano: 90908 ns
  year: 2020 y
  month: 2 months
  day: 9 d
  hour: 8 h
  min: 19 min
  sec: 43 s
  valid:validTOW: true 
  valid:validWKN: true 
  valid:validUTC: true 
no decoder for 0a:04 len=0
no decoder for 0a:04 len=220
no decoder for 06:13 len=0
no decoder for 06:13 len=4
no decoder for 06:06 len=0
no decoder for 05:01 len=2
no decoder for 06:06 len=52
no decoder for 06:70 len=0
no decoder for 05:01 len=2
no decoder for 06:70 len=4
no decoder for 06:61 len=0
no decoder for 05:01 len=2
no decoder for 05:00 len=2
no decoder for 06:12 len=0
no decoder for 05:00 len=2
no decoder for 06:29 len=0
no decoder for 05:00 len=2
no decoder for 06:60 len=0
no decoder for 05:00 len=2
no decoder for 06:0e len=0
no decoder for 05:00 len=2
no decoder for 06:3e len=0
no decoder for 06:3e len=44
no decoder for 06:5c len=0
no decoder for 05:01 len=2
no decoder for 02:14 len=548
UBX-RXM-RAWX
  recvTOW: 30002.003 s
  week: 2092 weeks
  leapS: 18 s
  numMeas: 21 
  recStat:leapSec: true 
  recStat:clkReset: false 
  version: 1 
  prMes[0]: 2.177722778308736E7 m
  cpMes[0]: 1.144401077681917E8 cycles
  doMes[0]: -1412.652587890625 Hz
  gnssId[0]: 0 
  svId[0]: 7 
  sigId[0]: 0 
  freqId[0]: 0 
  lockTime[0]: 64500 ms
  cno[0]: 48 dBHz
  prStdev[0]: 0.08 m
  cpStdev[0]: 0.004 cycles
  doStdev[0]: 0.064 Hz
  trkStat:prValid[0]: true 
  trkStat:cpValid[0]: true 
  trkStat:halfCyc[0]: true 
  trkStat:subHalfCyc[0]: false 
  prMes[1]: 2.6429840552271E7 m
  cpMes[1]: 1.3888971494128546E8 cycles
  doMes[1]: -4597.63671875 Hz
  gnssId[1]: 0 
  svId[1]: 3 
  sigId[1]: 0 
  freqId[1]: 0 
  lockTime[1]: 64500 ms
  cno[1]: 40 dBHz
  prStdev[1]: 0.16 m
  cpStdev[1]: 0.008 cycles
  doStdev[1]: 0.256 Hz
  trkStat:prValid[1]: true 
  trkStat:cpValid[1]: true 
  trkStat:halfCyc[1]: true 
  trkStat:subHalfCyc[1]: true 
  prMes[2]: 2.416488904013753E7 m
  cpMes[2]: 1.2698734754360816E8 cycles
  doMes[2]: -3051.62451171875 Hz
  gnssId[2]: 0 
  svId[2]: 4 
  sigId[2]: 0 
  freqId[2]: 0 
  lockTime[2]: 64500 ms
  cno[2]: 43 dBHz
  prStdev[2]: 0.08 m
  cpStdev[2]: 0.004 cycles
  doStdev[2]: 0.128 Hz
  trkStat:prValid[2]: true 
  trkStat:cpValid[2]: true 
  trkStat:halfCyc[2]: true 
  trkStat:subHalfCyc[2]: false 
  prMes[3]: 2.4358092216624953E7 m
  cpMes[3]: 1.2800265216301385E8 cycles
  doMes[3]: 2005.0098876953125 Hz
  gnssId[3]: 0 
  svId[3]: 5 
  sigId[3]: 0 
  freqId[3]: 0 
  lockTime[3]: 64500 ms
  cno[3]: 44 dBHz
  prStdev[3]: 0.08 m
  cpStdev[3]: 0.004 cycles
  doStdev[3]: 0.128 Hz
  trkStat:prValid[3]: true 
  trkStat:cpValid[3]: true 
  trkStat:halfCyc[3]: true 
  trkStat:subHalfCyc[3]: false 
  prMes[4]: 2.5400619201086245E7 m
  cpMes[4]: 1.334811441658157E8 cycles
  doMes[4]: -3343.594970703125 Hz
  gnssId[4]: 0 
  svId[4]: 6 
  sigId[4]: 0 
  freqId[4]: 0 
  lockTime[4]: 64500 ms
  cno[4]: 39 dBHz
  prStdev[4]: 0.16 m
  cpStdev[4]: 0.008 cycles
  doStdev[4]: 0.256 Hz
  trkStat:prValid[4]: true 
  trkStat:cpValid[4]: true 
  trkStat:halfCyc[4]: true 
  trkStat:subHalfCyc[4]: false 
  prMes[5]: 2.5560964423351105E7 m
  cpMes[5]: 1.3432378154332438E8 cycles
  doMes[5]: 766.292724609375 Hz
  gnssId[5]: 0 
  svId[5]: 8 
  sigId[5]: 0 
  freqId[5]: 0 
  lockTime[5]: 64500 ms
  cno[5]: 39 dBHz
  prStdev[5]: 0.16 m
  cpStdev[5]: 0.008 cycles
  doStdev[5]: 0.256 Hz
  trkStat:prValid[5]: true 
  trkStat:cpValid[5]: true 
  trkStat:halfCyc[5]: true 
  trkStat:subHalfCyc[5]: true 
  prMes[6]: 2.202263592979062E7 m
  cpMes[6]: 1.1572972526967934E8 cycles
  doMes[6]: -1889.832275390625 Hz
  gnssId[6]: 0 
  svId[6]: 9 
  sigId[6]: 0 
  freqId[6]: 0 
  lockTime[6]: 64500 ms
  cno[6]: 51 dBHz
  prStdev[6]: 0.08 m
  cpStdev[6]: 0.004 cycles
  doStdev[6]: 0.032 Hz
  trkStat:prValid[6]: true 
  trkStat:cpValid[6]: true 
  trkStat:halfCyc[6]: true 
  trkStat:subHalfCyc[6]: true 
  prMes[7]: 2.211499623284058E7 m
  cpMes[7]: 1.162150980564313E8 cycles
  doMes[7]: 323.569580078125 Hz
  gnssId[7]: 0 
  svId[7]: 30 
  sigId[7]: 0 
  freqId[7]: 0 
  lockTime[7]: 64500 ms
  cno[7]: 46 dBHz
  prStdev[7]: 0.08 m
  cpStdev[7]: 0.004 cycles
  doStdev[7]: 0.128 Hz
  trkStat:prValid[7]: true 
  trkStat:cpValid[7]: true 
  trkStat:halfCyc[7]: true 
  trkStat:subHalfCyc[7]: true 
  prMes[8]: 2.351250222294593E7 m
  cpMes[8]: 1.2355903370413604E8 cycles
  doMes[8]: -2702.45849609375 Hz
  gnssId[8]: 0 
  svId[8]: 23 
  sigId[8]: 0 
  freqId[8]: 0 
  lockTime[8]: 64500 ms
  cno[8]: 46 dBHz
  prStdev[8]: 0.08 m
  cpStdev[8]: 0.004 cycles
  doStdev[8]: 0.064 Hz
  trkStat:prValid[8]: true 
  trkStat:cpValid[8]: true 
  trkStat:halfCyc[8]: true 
  trkStat:subHalfCyc[8]: false 
  prMes[9]: 2.3888575709457513E7 m
  cpMes[9]: 1.2553531441520801E8 cycles
  doMes[9]: 2593.463134765625 Hz
  gnssId[9]: 0 
  svId[9]: 28 
  sigId[9]: 0 
  freqId[9]: 0 
  lockTime[9]: 64500 ms
  cno[9]: 40 dBHz
  prStdev[9]: 0.16 m
  cpStdev[9]: 0.008 cycles
  doStdev[9]: 0.256 Hz
  trkStat:prValid[9]: true 
  trkStat:cpValid[9]: true 
  trkStat:halfCyc[9]: true 
  trkStat:subHalfCyc[9]: true 
  prMes[10]: 2.6102646539115895E7 m
  cpMes[10]: 1.371703057040462E8 cycles
  doMes[10]: -279.193115234375 Hz
  gnssId[10]: 0 
  svId[10]: 27 
  sigId[10]: 0 
  freqId[10]: 0 
  lockTime[10]: 64500 ms
  cno[10]: 32 dBHz
  prStdev[10]: 0.64 m
  cpStdev[10]: 0.02 cycles
  doStdev[10]: 0.512 Hz
  trkStat:prValid[10]: true 
  trkStat:cpValid[10]: true 
  trkStat:halfCyc[10]: true 
  trkStat:subHalfCyc[10]: true 
  prMes[11]: 2.575047729424137E7 m
  cpMes[11]: 1.3531963839902234E8 cycles
  doMes[11]: -1988.5673828125 Hz
  gnssId[11]: 0 
  svId[11]: 2 
  sigId[11]: 0 
  freqId[11]: 0 
  lockTime[11]: 64500 ms
  cno[11]: 35 dBHz
  prStdev[11]: 0.32 m
  cpStdev[11]: 0.012 cycles
  doStdev[11]: 0.512 Hz
  trkStat:prValid[11]: true 
  trkStat:cpValid[11]: true 
  trkStat:halfCyc[11]: true 
  trkStat:subHalfCyc[11]: false 
  prMes[12]: 2.1777202266988654E7 m
  cpMes[12]: 8.917400153451145E7 cycles
  doMes[12]: -1100.653076171875 Hz
  gnssId[12]: 0 
  svId[12]: 7 
  sigId[12]: 3 
  freqId[12]: 0 
  lockTime[12]: 64500 ms
  cno[12]: 45 dBHz
  prStdev[12]: 0.16 m
  cpStdev[12]: 0.004 cycles
  doStdev[12]: 0.128 Hz
  trkStat:prValid[12]: true 
  trkStat:cpValid[12]: true 
  trkStat:halfCyc[12]: true 
  trkStat:subHalfCyc[12]: true 
  prMes[13]: 2.642982277436665E7 m
  cpMes[13]: 1.0822566419413891E8 cycles
  doMes[13]: -3582.846923828125 Hz
  gnssId[13]: 0 
  svId[13]: 3 
  sigId[13]: 3 
  freqId[13]: 0 
  lockTime[13]: 64500 ms
  cno[13]: 39 dBHz
  prStdev[13]: 0.32 m
  cpStdev[13]: 0.012 cycles
  doStdev[13]: 0.256 Hz
  trkStat:prValid[13]: true 
  trkStat:cpValid[13]: true 
  trkStat:halfCyc[13]: true 
  trkStat:subHalfCyc[13]: false 
  prMes[14]: 2.4164867688288983E7 m
  cpMes[14]: 9.895108177855392E7 cycles
  doMes[14]: -2377.856201171875 Hz
  gnssId[14]: 0 
  svId[14]: 4 
  sigId[14]: 3 
  freqId[14]: 0 
  lockTime[14]: 64500 ms
  cno[14]: 42 dBHz
  prStdev[14]: 0.16 m
  cpStdev[14]: 0.008 cycles
  doStdev[14]: 0.128 Hz
  trkStat:prValid[14]: true 
  trkStat:cpValid[14]: true 
  trkStat:halfCyc[14]: true 
  trkStat:subHalfCyc[14]: false 
  prMes[15]: 2.4358067989329524E7 m
  cpMes[15]: 9.974222981522597E7 cycles
  doMes[15]: 1562.493408203125 Hz
  gnssId[15]: 0 
  svId[15]: 5 
  sigId[15]: 3 
  freqId[15]: 0 
  lockTime[15]: 64500 ms
  cno[15]: 41 dBHz
  prStdev[15]: 0.32 m
  cpStdev[15]: 0.008 cycles
  doStdev[15]: 0.256 Hz
  trkStat:prValid[15]: true 
  trkStat:cpValid[15]: true 
  trkStat:halfCyc[15]: true 
  trkStat:subHalfCyc[15]: true 
  prMes[16]: 2.5400597681645807E7 m
  cpMes[16]: 1.0401120293042916E8 cycles
  doMes[16]: -2604.915771484375 Hz
  gnssId[16]: 0 
  svId[16]: 6 
  sigId[16]: 3 
  freqId[16]: 0 
  lockTime[16]: 64500 ms
  cno[16]: 35 dBHz
  prStdev[16]: 0.32 m
  cpStdev[16]: 0.016 cycles
  doStdev[16]: 0.512 Hz
  trkStat:prValid[16]: true 
  trkStat:cpValid[16]: true 
  trkStat:halfCyc[16]: true 
  trkStat:subHalfCyc[16]: true 
  prMes[17]: 2.5560947248386677E7 m
  cpMes[17]: 1.0466780014306888E8 cycles
  doMes[17]: 597.141845703125 Hz
  gnssId[17]: 0 
  svId[17]: 8 
  sigId[17]: 3 
  freqId[17]: 0 
  lockTime[17]: 64500 ms
  cno[17]: 37 dBHz
  prStdev[17]: 0.32 m
  cpStdev[17]: 0.012 cycles
  doStdev[17]: 0.256 Hz
  trkStat:prValid[17]: true 
  trkStat:cpValid[17]: true 
  trkStat:halfCyc[17]: true 
  trkStat:subHalfCyc[17]: false 
  prMes[18]: 2.202261173013634E7 m
  cpMes[18]: 9.017891704138494E7 cycles
  doMes[18]: -1472.446533203125 Hz
  gnssId[18]: 0 
  svId[18]: 9 
  sigId[18]: 3 
  freqId[18]: 0 
  lockTime[18]: 64500 ms
  cno[18]: 45 dBHz
  prStdev[18]: 0.16 m
  cpStdev[18]: 0.004 cycles
  doStdev[18]: 0.128 Hz
  trkStat:prValid[18]: true 
  trkStat:cpValid[18]: true 
  trkStat:halfCyc[18]: true 
  trkStat:subHalfCyc[18]: false 
  prMes[19]: 2.2114973920532048E7 m
  cpMes[19]: 9.055712577411945E7 cycles
  doMes[19]: 252.130859375 Hz
  gnssId[19]: 0 
  svId[19]: 30 
  sigId[19]: 3 
  freqId[19]: 0 
  lockTime[19]: 64500 ms
  cno[19]: 43 dBHz
  prStdev[19]: 0.32 m
  cpStdev[19]: 0.004 cycles
  doStdev[19]: 0.128 Hz
  trkStat:prValid[19]: true 
  trkStat:cpValid[19]: true 
  trkStat:halfCyc[19]: true 
  trkStat:subHalfCyc[19]: false 
  prMes[20]: 2.6102625948515646E7 m
  cpMes[20]: 1.0688588955828933E8 cycles
  doMes[20]: -217.0419921875 Hz
  gnssId[20]: 0 
  svId[20]: 27 
  sigId[20]: 3 
  freqId[20]: 0 
  lockTime[20]: 4960 ms
  cno[20]: 29 dBHz
  prStdev[20]: 1.28 m
  cpStdev[20]: 0.032 cycles
  doStdev[20]: 1.024 Hz
  trkStat:prValid[20]: true 
  trkStat:cpValid[20]: true 
  trkStat:halfCyc[20]: true 
  trkStat:subHalfCyc[20]: false 
no decoder for 01:07 len=92
no decoder for 01:43 len=392
UBX-NAV-POSECEF
  iTOW: 30002000 ms
  ecefX: 444008028 cm
  ecefY: 308657905 cm
  ecefZ: 337101607 cm
  pAcc: 156 cm
UBX-NAV-POSLLH
  iTOW: 30002000 ms
  lon: 34.8055933 degrees
  lat: 32.112188599999996 degrees
  height: 77.283 m
  hMSL: 59.714 m
  hAcc: 0.992 m
  vAcc: 1.204 m
UBX-NAV-TIMEGPS
  iTOW: 30002000 ms
  fTOW: 90355 ns
  week: 2092 weeks
  leapS: 18 s
  valid:towValid: true 
  valid:weekValid: true 
  valid:leapSValid: true 
  tAcc: 3 ns
UBX-NAV-TIMEUTC
  iTOW: 30002000 ms
  tAcc: 3 ns
  nano: 90353 ns
  year: 2020 y
  month: 2 months
  day: 9 d
  hour: 8 h
  min: 19 min
  sec: 44 s
  valid:validTOW: true 
  valid:validWKN: true 
  valid:validUTC: true 
no decoder for 05:00 len=2
no decoder for 06:02 len=1
no decoder for 06:02 len=10
no decoder for 06:02 len=1
no decoder for 05:01 len=2
no decoder for 06:02 len=10
no decoder for 06:02 len=1
no decoder for 05:01 len=2
no decoder for 06:02 len=10
no decoder for 06:02 len=1
no decoder for 05:01 len=2
no decoder for 06:02 len=10
no decoder for 06:02 len=1
no decoder for 05:01 len=2
no decoder for 06:02 len=10
no decoder for 06:02 len=1
no decoder for 05:01 len=2
no decoder for 06:02 len=10
no decoder for 06:02 len=1
no decoder for 05:01 len=2
no decoder for 06:02 len=10
no decoder for 06:39 len=0
no decoder for 05:01 len=2
no decoder for 06:39 len=8
no decoder for 06:47 len=0
no decoder for 05:01 len=2
no decoder for 06:47 len=12
no decoder for 06:01 len=2
no decoder for 05:01 len=2
no decoder for 05:00 len=2
no decoder for 06:01 len=2
no decoder for 05:00 len=2
no decoder for 06:01 len=2
no decoder for 05:00 len=2
no decoder for 06:01 len=2
no decoder for 05:00 len=2
no decoder for 06:01 len=2
no decoder for 05:00 len=2
no decoder for 06:01 len=2
no decoder for 05:00 len=2
no decoder for 06:01 len=2
no decoder for 02:14 len=548
UBX-RXM-RAWX
  recvTOW: 30003.003 s
  week: 2092 weeks
  leapS: 18 s
  numMeas: 21 
  recStat:leapSec: true 
  recStat:clkReset: false 
  version: 1 
  prMes[0]: 2.1777496631611988E7 m
  cpMes[0]: 1.1444152066482145E8 cycles
  doMes[0]: -1412.872314453125 Hz
  gnssId[0]: 0 
  svId[0]: 7 
  sigId[0]: 0 
  freqId[0]: 0 
  lockTime[0]: 64500 ms
  cno[0]: 48 dBHz
  prStdev[0]: 0.08 m
  cpStdev[0]: 0.004 cycles
  doStdev[0]: 0.064 Hz
  trkStat:prValid[0]: true 
  trkStat:cpValid[0]: true 
  trkStat:halfCyc[0]: true 
  trkStat:subHalfCyc[0]: false 
  prMes[1]: 2.6430715550023418E7 m
  cpMes[1]: 1.3889431301335764E8 cycles
  doMes[1]: -4598.04443359375 Hz
  gnssId[1]: 0 
  svId[1]: 3 
  sigId[1]: 0 
  freqId[1]: 0 
  lockTime[1]: 64500 ms
  cno[1]: 40 dBHz
  prStdev[1]: 0.16 m
  cpStdev[1]: 0.008 cycles
  doStdev[1]: 0.128 Hz
  trkStat:prValid[1]: true 
  trkStat:cpValid[1]: true 
  trkStat:halfCyc[1]: true 
  trkStat:subHalfCyc[1]: true 
  prMes[2]: 2.4165469750158694E7 m
  cpMes[2]: 1.2699039926664835E8 cycles
  doMes[2]: -3051.707275390625 Hz
  gnssId[2]: 0 
  svId[2]: 4 
  sigId[2]: 0 
  freqId[2]: 0 
  lockTime[2]: 64500 ms
  cno[2]: 43 dBHz
  prStdev[2]: 0.08 m
  cpStdev[2]: 0.004 cycles
  doStdev[2]: 0.128 Hz
  trkStat:prValid[2]: true 
  trkStat:cpValid[2]: true 
  trkStat:halfCyc[2]: true 
  trkStat:subHalfCyc[2]: false 
  prMes[3]: 2.4357710860194676E7 m
  cpMes[3]: 1.2800064731180021E8 cycles
  doMes[3]: 2004.644287109375 Hz
  gnssId[3]: 0 
  svId[3]: 5 
  sigId[3]: 0 
  freqId[3]: 0 
  lockTime[3]: 64500 ms
  cno[3]: 44 dBHz
  prStdev[3]: 0.08 m
  cpStdev[3]: 0.004 cycles
  doStdev[3]: 0.128 Hz
  trkStat:prValid[3]: true 
  trkStat:cpValid[3]: true 
  trkStat:halfCyc[3]: true 
  trkStat:subHalfCyc[3]: false 
  prMes[4]: 2.540125549158653E7 m
  cpMes[4]: 1.3348448798459643E8 cycles
  doMes[4]: -3343.509521484375 Hz
  gnssId[4]: 0 
  svId[4]: 6 
  sigId[4]: 0 
  freqId[4]: 0 
  lockTime[4]: 64500 ms
  cno[4]: 39 dBHz
  prStdev[4]: 0.16 m
  cpStdev[4]: 0.008 cycles
  doStdev[4]: 0.256 Hz
  trkStat:prValid[4]: true 
  trkStat:cpValid[4]: true 
  trkStat:halfCyc[4]: true 
  trkStat:subHalfCyc[4]: false 
  prMes[5]: 2.5560818640113857E7 m
  cpMes[5]: 1.343230152959235E8 cycles
  doMes[5]: 766.2548828125 Hz
  gnssId[5]: 0 
  svId[5]: 8 
  sigId[5]: 0 
  freqId[5]: 0 
  lockTime[5]: 64500 ms
  cno[5]: 39 dBHz
  prStdev[5]: 0.16 m
  cpStdev[5]: 0.008 cycles
  doStdev[5]: 0.256 Hz
  trkStat:prValid[5]: true 
  trkStat:cpValid[5]: true 
  trkStat:halfCyc[5]: true 
  trkStat:subHalfCyc[5]: true 
  prMes[6]: 2.2022995577731222E7 m
  cpMes[6]: 1.1573161541613543E8 cycles
  doMes[6]: -1890.358154296875 Hz
  gnssId[6]: 0 
  svId[6]: 9 
  sigId[6]: 0 
  freqId[6]: 0 
  lockTime[6]: 64500 ms
  cno[6]: 51 dBHz
  prStdev[6]: 0.08 m
  cpStdev[6]: 0.004 cycles
  doStdev[6]: 0.064 Hz
  trkStat:prValid[6]: true 
  trkStat:cpValid[6]: true 
  trkStat:halfCyc[6]: true 
  trkStat:subHalfCyc[6]: true 
  prMes[7]: 2.2114934687877037E7 m
  cpMes[7]: 1.1621477476675695E8 cycles
  doMes[7]: 323.068359375 Hz
  gnssId[7]: 0 
  svId[7]: 30 
  sigId[7]: 0 
  freqId[7]: 0 
  lockTime[7]: 64500 ms
  cno[7]: 46 dBHz
  prStdev[7]: 0.08 m
  cpStdev[7]: 0.004 cycles
  doStdev[7]: 0.128 Hz
  trkStat:prValid[7]: true 
  trkStat:cpValid[7]: true 
  trkStat:halfCyc[7]: true 
  trkStat:subHalfCyc[7]: true 
  prMes[8]: 2.351301665745892E7 m
  cpMes[8]: 1.2356173649977912E8 cycles
  doMes[8]: -2702.926025390625 Hz
  gnssId[8]: 0 
  svId[8]: 23 
  sigId[8]: 0 
  freqId[8]: 0 
  lockTime[8]: 64500 ms
  cno[8]: 46 dBHz
  prStdev[8]: 0.08 m
  cpStdev[8]: 0.004 cycles
  doStdev[8]: 0.128 Hz
  trkStat:prValid[8]: true 
  trkStat:cpValid[8]: true 
  trkStat:halfCyc[8]: true 
  trkStat:subHalfCyc[8]: false 
  prMes[9]: 2.388808226169319E7 m
  cpMes[9]: 1.2553272107925296E8 cycles
  doMes[9]: 2593.49560546875 Hz
  gnssId[9]: 0 
  svId[9]: 28 
  sigId[9]: 0 
  freqId[9]: 0 
  lockTime[9]: 64500 ms
  cno[9]: 40 dBHz
  prStdev[9]: 0.16 m
  cpStdev[9]: 0.008 cycles
  doStdev[9]: 0.128 Hz
  trkStat:prValid[9]: true 
  trkStat:cpValid[9]: true 
  trkStat:halfCyc[9]: true 
  trkStat:subHalfCyc[9]: true 
  prMes[10]: 2.610269976932989E7 m
  cpMes[10]: 1.3717058527547878E8 cycles
  doMes[10]: -280.44677734375 Hz
  gnssId[10]: 0 
  svId[10]: 27 
  sigId[10]: 0 
  freqId[10]: 0 
  lockTime[10]: 64500 ms
  cno[10]: 32 dBHz
  prStdev[10]: 0.64 m
  cpStdev[10]: 0.016 cycles
  doStdev[10]: 0.512 Hz
  trkStat:prValid[10]: true 
  trkStat:cpValid[10]: true 
  trkStat:halfCyc[10]: true 
  trkStat:subHalfCyc[10]: true 
  prMes[11]: 2.5750855780320227E7 m
  cpMes[11]: 1.3532162746835485E8 cycles
  doMes[11]: -1988.956787109375 Hz
  gnssId[11]: 0 
  svId[11]: 2 
  sigId[11]: 0 
  freqId[11]: 0 
  lockTime[11]: 64500 ms
  cno[11]: 35 dBHz
  prStdev[11]: 0.32 m
  cpStdev[11]: 0.012 cycles
  doStdev[11]: 0.512 Hz
  trkStat:prValid[11]: true 
  trkStat:cpValid[11]: true 
  trkStat:halfCyc[11]: true 
  trkStat:subHalfCyc[11]: false 
  prMes[12]: 2.17774711812657E7 m
  cpMes[12]: 8.9175102498914E7 cycles
  doMes[12]: -1101.055908203125 Hz
  gnssId[12]: 0 
  svId[12]: 7 
  sigId[12]: 3 
  freqId[12]: 0 
  lockTime[12]: 64500 ms
  cno[12]: 44 dBHz
  prStdev[12]: 0.16 m
  cpStdev[12]: 0.004 cycles
  doStdev[12]: 0.128 Hz
  trkStat:prValid[12]: true 
  trkStat:cpValid[12]: true 
  trkStat:halfCyc[12]: true 
  trkStat:subHalfCyc[12]: true 
  prMes[13]: 2.643069774852637E7 m
  cpMes[13]: 1.0822924709016383E8 cycles
  doMes[13]: -3582.995849609375 Hz
  gnssId[13]: 0 
  svId[13]: 3 
  sigId[13]: 3 
  freqId[13]: 0 
  lockTime[13]: 64500 ms
  cno[13]: 38 dBHz
  prStdev[13]: 0.32 m
  cpStdev[13]: 0.012 cycles
  doStdev[13]: 0.256 Hz
  trkStat:prValid[13]: true 
  trkStat:cpValid[13]: true 
  trkStat:halfCyc[13]: true 
  trkStat:subHalfCyc[13]: false 
  prMes[14]: 2.4165448356010817E7 m
  cpMes[14]: 9.89534597542791E7 cycles
  doMes[14]: -2378.145751953125 Hz
  gnssId[14]: 0 
  svId[14]: 4 
  sigId[14]: 3 
  freqId[14]: 0 
  lockTime[14]: 64500 ms
  cno[14]: 42 dBHz
  prStdev[14]: 0.32 m
  cpStdev[14]: 0.008 cycles
  doStdev[14]: 0.128 Hz
  trkStat:prValid[14]: true 
  trkStat:cpValid[14]: true 
  trkStat:halfCyc[14]: true 
  trkStat:subHalfCyc[14]: false 
  prMes[15]: 2.4357686460002493E7 m
  cpMes[15]: 9.974066758682808E7 cycles
  doMes[15]: 1562.361328125 Hz
  gnssId[15]: 0 
  svId[15]: 5 
  sigId[15]: 3 
  freqId[15]: 0 
  lockTime[15]: 64500 ms
  cno[15]: 41 dBHz
  prStdev[15]: 0.16 m
  cpStdev[15]: 0.008 cycles
  doStdev[15]: 0.128 Hz
  trkStat:prValid[15]: true 
  trkStat:cpValid[15]: true 
  trkStat:halfCyc[15]: true 
  trkStat:subHalfCyc[15]: true 
  prMes[16]: 2.5401233988898296E7 m
  cpMes[16]: 1.0401380850065212E8 cycles
  doMes[16]: -2605.37841796875 Hz
  gnssId[16]: 0 
  svId[16]: 6 
  sigId[16]: 3 
  freqId[16]: 0 
  lockTime[16]: 64500 ms
  cno[16]: 35 dBHz
  prStdev[16]: 0.32 m
  cpStdev[16]: 0.016 cycles
  doStdev[16]: 0.512 Hz
  trkStat:prValid[16]: true 
  trkStat:cpValid[16]: true 
  trkStat:halfCyc[16]: true 
  trkStat:subHalfCyc[16]: true 
  prMes[17]: 2.5560801436810274E7 m
  cpMes[17]: 1.0466720305484849E8 cycles
  doMes[17]: 596.971435546875 Hz
  gnssId[17]: 0 
  svId[17]: 8 
  sigId[17]: 3 
  freqId[17]: 0 
  lockTime[17]: 64500 ms
  cno[17]: 37 dBHz
  prStdev[17]: 0.32 m
  cpStdev[17]: 0.012 cycles
  doStdev[17]: 0.512 Hz
  trkStat:prValid[17]: true 
  trkStat:cpValid[17]: true 
  trkStat:halfCyc[17]: true 
  trkStat:subHalfCyc[17]: false 
  prMes[18]: 2.202297139015249E7 m
  cpMes[18]: 9.018038988488682E7 cycles
  doMes[18]: -1472.9854736328125 Hz
  gnssId[18]: 0 
  svId[18]: 9 
  sigId[18]: 3 
  freqId[18]: 0 
  lockTime[18]: 64500 ms
  cno[18]: 44 dBHz
  prStdev[18]: 0.32 m
  cpStdev[18]: 0.004 cycles
  doStdev[18]: 0.128 Hz
  trkStat:prValid[18]: true 
  trkStat:cpValid[18]: true 
  trkStat:halfCyc[18]: true 
  trkStat:subHalfCyc[18]: false 
  prMes[19]: 2.2114912455211297E7 m
  cpMes[19]: 9.055687385324448E7 cycles
  doMes[19]: 251.8173828125 Hz
  gnssId[19]: 0 
  svId[19]: 30 
  sigId[19]: 3 
  freqId[19]: 0 
  lockTime[19]: 64500 ms
  cno[19]: 43 dBHz
  prStdev[19]: 0.32 m
  cpStdev[19]: 0.004 cycles
  doStdev[19]: 0.128 Hz
  trkStat:prValid[19]: true 
  trkStat:cpValid[19]: true 
  trkStat:halfCyc[19]: true 
  trkStat:subHalfCyc[19]: false 
  prMes[20]: 2.610267908833751E7 m
  cpMes[20]: 1.0688610734810767E8 cycles
  doMes[20]: -217.50196838378906 Hz
  gnssId[20]: 0 
  svId[20]: 27 
  sigId[20]: 3 
  freqId[20]: 0 
  lockTime[20]: 5960 ms
  cno[20]: 29 dBHz
  prStdev[20]: 1.28 m
  cpStdev[20]: 0.032 cycles
  doStdev[20]: 1.024 Hz
  trkStat:prValid[20]: true 
  trkStat:cpValid[20]: true 
  trkStat:halfCyc[20]: true 
  trkStat:subHalfCyc[20]: false 
no decoder for 01:07 len=92
no decoder for 01:43 len=408
UBX-NAV-POSECEF
  iTOW: 30003000 ms
  ecefX: 444008028 cm
