     2.11           OBSERVATION DATA    M (MIXED)           RINEX VERSION / TYPE
TEQC  2014OCT13                         20150101 00:18:22UTCPGM / RUN BY / DATE
LINUX 2.4.20-8|PENTIUM IV|GCC -STATIC|LINUX|486/DX+         COMMENT
TEQC  2014OCT13                         20150101 00:16:36UTCCOMMENT
BIT 2 OF LLI FLAGS DATA COLLECTED UNDER A/S CONDITION       COMMENT
ZWE2                                                        MARKER NAME
12330M003                                                   MARKER NUMBER
GFZ                 GFZ                                     OBSERVER / AGENCY
1348                SEPT POLARX2        2.6.0               REC # / TYPE / VERS
217-0340            TPSCR3_GGD      NONE                    ANT # / TYPE
  2886359.0000  2155972.0000  5245886.0000                  APPROX POSITION XYZ
        0.1300        0.0000        0.0000                  ANTENNA: DELTA H/E/N
     1     1                                                WAVELENGTH FACT L1/2
 SNR IS MAPPED TO RINEX SNR FLAG VALUE [0-9]                COMMENT
  L1 & L2: MIN(MAX(INT(SNR_DBHZ/6), 0), 9)                  COMMENT
    16                                                      LEAP SECONDS
     7    L1    L2    C1    P1    P2    S1    S2            # / TYPES OF OBSERV
  2015     1     1     0     0    0.0000000     GPS         TIME OF FIRST OBS
  2015     1     1     0    14   59.0000000     GPS         TIME OF LAST OBS
     1.000                                                  INTERVAL
                                                            END OF HEADER
 15 01 01 00 00  0.0000000  0 14G12G14G25G02G29G31G03G10G24G06G20S36
                                S20S26
 -45940923.88548 -35317423.11147  20582510.545 0  20582509.744 0  20582508.611 0
        52.000 0        44.000 0
 -22059539.77346 -14094985.55542  24426923.737 0  24426922.047 0  24426922.223 0
        39.000 0        16.000 0
 -36640641.36648 -28346004.41947  21011053.803 0  21011052.484 0  21011055.034 0
        50.000 0        42.000 0
 -32686666.23348 -23037652.53046  21646695.624 0  21646694.579 0  21646692.156 0
        49.000 0        40.000 0
 -16070721.43747 -12375103.55645  23022045.151 0  23022043.549 0  23022043.305 0
        46.000 0        30.000 0
 -11436689.23947  -8711006.35844  24031778.610 0  24031778.112 0  24031777.135 0
        42.000 0        26.000 0
 -12772450.73145      6572.97841  25783093.698 0  25783092.047 0  25783093.932 0
        35.000 0        10.000 0
  -6742087.80546  -5007651.36242  24580019.032 0  24580016.522 0  24580017.694 0
        39.000 0        12.000 0
 -35141000.11047 -27084165.32844  23684832.921 0  23684832.481 0  23684834.884 0
        43.000 0        28.000 0
 -30065795.75447 -23369744.82845  22448387.311 0  22448387.955 0  22448390.036 0
        45.000 0        34.000 0
 -12767263.62745  -1567880.15741  25030835.355 0  25030833.137 0  25030835.072 0
        35.000 0         6.000 0
-319009239.361 6          .000 0  21865060.008 0          .000 0          .000 0
        40.000 0          .000 0
  -6254342.589 5          .000 0  22785757.686 0          .000 0          .000 0
        35.000 0          .000 0
-180207889.904 6          .000 0  21173395.299 0          .000 0          .000 0
        40.000 0          .000 0
 15 01 01 00 00  1.0000000  0 14G12G14G25G02G29G31G03G10G24G06G20S36
                                S20S26
 -45941317.34748 -35317729.70547  20582435.583 0  20582434.870 0  20582433.717 0
        52.000 0        44.000 0
 -22058846.48646 -14094445.33342  24427055.513 0  24427053.999 0  24427054.087 0
        39.000 0        16.000 0
 -36643755.91748 -28348431.34247  21010461.056 0  21010459.796 0  21010462.355 0
        50.000 0        42.000 0
 -32689121.08348 -23039565.40146  21646228.587 0  21646227.424 0  21646225.051 0
        49.000 0        40.000 0
 -16075397.70647 -12378747.40145  23021155.239 0  23021153.725 0  23021153.432 0
        46.000 0        30.000 0
 -11441037.90047  -8714394.92544  24030951.246 0  24030950.620 0  24030949.614 0
        43.000 0        26.000 0
 -12771890.98246      7009.15341  25783199.655 0  25783198.513 0  25783200.359 0
        36.000 0        10.000 0
  -6746245.49246  -5010891.11942  24579227.488 0  24579225.251 0  24579226.560 0
        39.000 0        12.000 0
 -35138871.65447 -27082506.79144  23685238.017 0  23685237.528 0  23685239.970 0
        43.000 0        28.000 0
 -30065476.27947 -23369495.88645  22448447.973 0  22448448.734 0  22448450.805 0
        45.000 0        34.000 0
 -12767388.97845  -1567977.83441  25030811.989 0  25030809.263 0  25030811.256 0
        35.000 0         6.000 0
-319010719.865 6          .000 0  21864777.926 0          .000 0          .000 0
        40.000 0          .000 0
  -6255851.741 6          .000 0  22785471.345 0          .000 0          .000 0
        36.000 0          .000 0
-180209322.047 6          .000 0  21173122.751 0          .000 0          .000 0
        40.000 0          .000 0
 15 01 01 00 00  2.0000000  0 14G12G14G25G02G29G31G03G10G24G06G20S36
                                S20S26
 -45941710.24348 -35318035.85847  20582360.854 0  20582360.112 0  20582358.950 0
        52.000 0        44.000 0
 -22058152.72846 -14093904.74442  24427187.308 0  24427186.029 0  24427186.029 0
        39.000 0        16.000 0
 -36646869.95048 -28350857.86247  21009868.436 0  21009867.215 0  21009869.764 0
        50.000 0        42.000 0
 -32691575.30948 -23041477.78446  21645761.715 0  21645760.377 0  21645758.042 0
        49.000 0        40.000 0
 -16080073.67147 -12382391.00945  23020265.308 0  23020263.960 0  23020263.618 0
        45.000 0        30.000 0
 -11445386.11747  -8717783.14544  24030123.959 0  24030123.148 0  24030122.162 0
        43.000 0        26.000 0
 -12771330.62245      7445.80241  25783305.955 0  25783305.008 0  25783306.981 0
        35.000 0        10.000 0
  -6750402.72146  -5014130.52042  24578436.179 0  24578434.118 0  24578435.505 0
        39.000 0        12.000 0
 -35136742.92547 -27080848.04244  23685643.191 0  23685642.605 0  23685645.105 0
        43.000 0        28.000 0
 -30065156.15047 -23369246.43645  22448508.732 0  22448509.621 0  22448511.731 0
        45.000 0        34.000 0
 -12767513.73345  -1568075.04641  25030788.242 0  25030785.516 0  25030787.529 0
        35.000 0         8.000 0
-319012200.450 6          .000 0  21864494.984 0          .000 0          .000 0
        40.000 0          .000 0
  -6257360.941 5          .000 0  22785186.986 0          .000 0          .000 0
        35.000 0          .000 0
-180210754.192 6          .000 0  21172848.063 0          .000 0          .000 0
        40.000 0          .000 0
 15 01 01 00 00  3.0000000  0 14G12G14G25G02G29G31G03G10G24G06G20S36
                                S20S26
 -45942102.59148 -35318341.58347  20582286.214 0  20582285.442 0  20582284.280 0
        52.000 0        44.000 0
 -22057458.46846 -14093363.76442  24427319.143 0  24427318.107 0  24427318.098 0
        39.000 0        16.000 0
 -36649983.48748 -28353283.99447  21009275.962 0  21009274.731 0  21009277.271 0
        50.000 0        42.000 0
 -32694028.91848 -23043389.68746  21645294.893 0  21645293.437 0  21645291.161 0
        49.000 0        40.000 0
 -16084749.34447 -12386034.39045  23019375.445 0  23019374.283 0  23019373.892 0
        46.000 0        30.000 0
 -11449733.92047  -8721171.04344  24029296.682 0  24029295.764 0  24029294.768 0
        43.000 0        26.000 0
 -12770769.71945      7882.87541  25783412.109 0  25783411.601 0  25783413.759 0
        34.000 0        10.000 0
  -6754559.50246  -5017369.57042  24577645.016 0  24577643.082 0  24577644.527 0
        39.000 0        12.000 0
 -35134613.93247 -27079189.08544  23686048.423 0  23686047.730 0  23686050.279 0
        43.000 0        28.000 0
 -30064835.39647 -23368996.49845  22448569.619 0  22448570.634 0  22448572.783 0
        45.000 0        34.000 0
 -12767637.86745  -1568171.77541  25030764.739 0  25030761.896 0  25030763.919 0
        35.000 0         8.000 0
-319013681.014 6          .000 0  21864213.556 0          .000 0          .000 0
        40.000 0          .000 0
  -6258870.099 5          .000 0  22784899.160 0          .000 0          .000 0
        35.000 0          .000 0
-180212186.370 6          .000 0  21172575.554 0          .000 0          .000 0
        40.000 0          .000 0
 15 01 01 00 00  4.0000000  0 14G12G14G25G02G29G31G03G10G24G06G20S36
                                S20S26
 -45942494.53048 -35318646.99147  20582211.613 0  20582210.851 0  20582209.698 0
        52.000 0        44.000 0
 -22056763.86446 -14092822.51642  24427451.222 0  24427450.264 0  24427450.235 0
        39.000 0        16.000 0
 -36653096.64548 -28355709.83247  21008683.508 0  21008682.326 0  21008684.866 0
        50.000 0        42.000 0
 -32696482.05348 -23045301.22046  21644828.119 0  21644826.595 0  21644824.358 0
        49.000 0        40.000 0
 -16089424.87047 -12389677.65645  23018485.680 0  23018484.625 0  23018484.185 0
        46.000 0        30.000 0
 -11454081.42147  -8724558.70444  24028469.279 0  24028468.458 0  24028467.442 0
        43.000 0        26.000 0
 -12770208.46745      8320.21541  25783518.320 0  25783518.213 0  25783520.899 0
        34.000 0        10.000 0
  -6758715.99646  -5020608.39242  24576853.921 0  24576852.163 0  24576853.570 0
        39.000 0        12.000 0
 -35132484.81847 -27077530.03644  23686453.705 0  23686452.875 0  23686455.483 0
        43.000 0        28.000 0
 -30064514.16747 -23368746.18945  22448630.632 0  22448631.765 0  22448633.914 0
        45.000 0        34.000 0
 -12767761.47045  -1568268.09141  25030741.236 0  25030738.364 0  25030740.396 0
        35.000 0         8.000 0
-319015161.592 6          .000 0  21863932.548 0          .000 0          .000 0
        39.000 0          .000 0
  -6260379.376 5          .000 0  22784612.340 0          .000 0          .000 0
        35.000 0          .000 0
-180213618.671 6          .000 0  21172304.275 0          .000 0          .000 0
        40.000 0          .000 0
 15 01 01 00 00  5.0000000  0 14G12G14G25G02G29G31G03G10G24G06G20S36
                                S20S26
 -45942885.90348 -35318951.95647  20582137.099 0  20582136.376 0  20582135.224 0
        52.000 0        44.000 0
 -22056068.81846 -14092280.92342  24427583.232 0  24427582.558 0  24427582.528 0
        38.000 0        16.000 0
 -36656209.29148 -28358135.27147  21008091.250 0  21008089.999 0  21008092.539 0
        50.000 0        42.000 0
 -32698934.55348 -23047212.25946  21644361.463 0  21644359.871 0  21644357.653 0
        49.000 0        40.000 0
 -16094100.07747 -12393320.67345  23017596.071 0  23017594.996 0  23017594.567 0
        46.000 0        30.000 0
 -11458428.51447  -8727946.04944  24027642.178 0  24027641.230 0  24027640.185 0
        43.000 0        26.000 0
 -12769646.61845      8758.02641  25783625.109 0  25783624.992 0  25783628.137 0
        33.000 0        10.000 0
  -6762872.02846  -5023846.85842  24576062.553 0  24576061.313 0  24576062.690 0
        39.000 0        12.000 0
 -35130355.43947 -27075870.78144  23686858.967 0  23686858.078 0  23686860.745 0
        43.000 0        28.000 0
 -30064192.27747 -23368495.36745  22448691.899 0  22448693.033 0  22448695.182 0
        45.000 0        34.000 0
 -12767884.41345  -1568363.89141  25030717.704 0  25030714.950 0  25030717.011 0
        34.000 0         8.000 0
-319016642.084 6          .000 0  21863650.759 0          .000 0          .000 0
        40.000 0          .000 0
  -6261888.538 5          .000 0  22784325.608 0          .000 0          .000 0
        35.000 0          .000 0
-180215050.822 6          .000 0  21172031.698 0          .000 0          .000 0
        40.000 0          .000 0
 15 01 01 00 00  6.0000000  0 14G12G14G25G02G29G31G03G10G24G06G20S36
                                S20S26
 -45943276.84448 -35319256.58547  20582062.693 0  20582061.980 0  20582060.837 0
        52.000 0        44.000 0
 -22055373.39146 -14091739.03442  24427715.330 0  24427714.920 0  24427714.910 0
        39.000 0        16.000 0
 -36659321.55648 -28360560.41247  21007499.059 0  21007497.760 0  21007500.310 0
        50.000 0        42.000 0
 -32701386.56448 -23049122.91846  21643894.836 0  21643893.263 0  21643891.065 0
        49.000 0        40.000 0
 -16098775.11947 -12396963.56245  23016706.452 0  23016705.407 0  23016704.977 0
        46.000 0        30.000 0
 -11462775.29947  -8731333.15444  24026815.135 0  24026814.071 0  24026812.986 0
        43.000 0        26.000 0
 -12769084.36745      9196.15141  25783731.770 0  25783732.024 0  25783735.384 0
        33.000 0        10.000 0
  -6767027.73946  -5027085.07642  24575271.664 0  24575270.452 0  24575271.849 0
        39.000 0        12.000 0
 -35128225.91247 -27074211.40944  23687263.975 0  23687263.320 0  23687266.026 0
        43.000 0        28.000 0
 -30063869.90447 -23368244.16845  22448753.313 0  22448754.398 0  22448756.527 0
        45.000 0        34.000 0
 -12768006.90045  -1568459.33641  25030694.133 0  25030691.652 0  25030693.703 0
        35.000 0         8.000 0
-319018122.727 6          .000 0  21863367.456 0          .000 0          .000 0
        40.000 0          .000 0
  -6263397.798 5          .000 0  22784038.251 0          .000 0          .000 0
        35.000 0          .000 0
-180216483.227 6          .000 0  21171758.319 0          .000 0          .000 0
        40.000 0          .000 0
 15 01 01 00 00  7.0000000  0 14G12G14G25G02G29G31G03G10G24G06G20S36
                                S20S26
 -45943667.23548 -35319560.78647  20581988.385 0  20581987.691 0  20581986.568 0
        52.000 0        44.000 0
 -22054677.49046 -14091196.77442  24427847.926 0  24427847.350 0  24427847.331 0
        39.000 0        16.000 0
 -36662433.30148 -28362985.14847  21006906.937 0  21006905.609 0  21006908.168 0
        50.000 0        42.000 0
 -32703837.95048 -23051033.08846  21643428.326 0  21643426.782 0  21643424.614 0
        49.000 0        40.000 0
 -16103449.86147 -12400606.21745  23015816.863 0  23015815.857 0  23015815.456 0
        45.000 0        30.000 0
 -11467121.65647  -8734719.92444  24025988.093 0  24025986.999 0  24025985.866 0
        43.000 0        26.000 0
 -12768521.59645      9634.67741  25783838.588 0  25783839.135 0  25783842.700 0
        33.000 0        10.000 0
  -6771183.00846  -5030322.94742  24574480.608 0  24574479.680 0  24574481.087 0
        39.000 0        12.000 0
 -35126096.15447 -27072551.85744  23687669.198 0  23687668.592 0  23687671.337 0
        43.000 0        28.000 0
 -30063546.88947 -23367992.46945  22448815.040 0  22448815.880 0  22448818.010 0
        45.000 0        34.000 0
 -12768128.71545  -1568554.25841  25030670.220 0  25030668.501 0  25030670.533 0
        34.000 0         8.000 0
-319019603.324 6          .000 0  21863085.354 0          .000 0          .000 0
        40.000 0          .000 0
  -6264906.871 5          .000 0  22783748.940 0          .000 0          .000 0
        35.000 0          .000 0
-180217915.626 6          .000 0  21171487.236 0          .000 0          .000 0
        40.000 0          .000 0
 15 01 01 00 00  8.0000000  0 14G12G14G25G02G29G31G03G10G24G06G20S36
                                S20S26
 -45944057.15748 -35319864.62147  20581914.204 0  20581913.491 0  20581912.387 0
        52.000 0        44.000 0
 -22053981.19046 -14090654.20342  24427980.591 0  24427979.859 0  24427979.839 0
        39.000 0        16.000 0
 -36665544.62548 -28365409.55747  21006314.825 0  21006313.546 0  21006316.105 0
        50.000 0        42.000 0
 -32706288.79448 -23052942.83646  21642961.982 0  21642960.409 0  21642958.241 0
        49.000 0        40.000 0
 -16108124.40247 -12404248.71545  23014927.264 0  23014926.345 0  23014925.974 0
        45.000 0        30.000 0
 -11471467.67847  -8738106.43644  24025160.992 0  24025159.986 0  24025158.833 0
        43.000 0        26.000 0
 -12767958.34645     10073.57441  25783945.747 0  25783946.177 0  25783949.840 0
        33.000 0        10.000 0
  -6775337.93146  -5033560.54742  24573689.631 0  24573689.045 0  24573690.500 0
        39.000 0        12.000 0
 -35123966.18447 -27070892.14044  23688074.450 0  23688073.903 0  23688076.667 0
        43.000 0        28.000 0
 -30063223.29347 -23367740.31745  22448876.845 0  22448877.460 0  22448879.609 0
        45.000 0        34.000 0
 -12768249.92445  -1568648.71041  25030646.678 0  25030645.447 0  25030647.528 0
        34.000 0         8.000 0
-319021084.002 6          .000 0  21862804.278 0          .000 0          .000 0
        40.000 0          .000 0
  -6266415.965 5          .000 0  22783463.624 0          .000 0          .000 0
        35.000 0          .000 0
-180219347.818 6          .000 0  21171214.854 0          .000 0          .000 0
        40.000 0          .000 0
 15 01 01 00 00  9.0000000  0 14G12G14G25G02G29G31G03G10G24G06G20S36
                                S20S26
 -45944446.53148 -35320168.03047  20581840.022 0  20581839.397 0  20581838.293 0
        52.000 0        44.000 0
 -22053284.41646 -14090111.26242  24428113.119 0  24428112.445 0  24428112.445 0
        39.000 0        16.000 0
 -36668655.45948 -28367833.58347  21005722.772 0  21005721.570 0  21005724.130 0
        50.000 0        42.000 0
 -32708739.03848 -23054852.11746  21642495.697 0  21642494.144 0  21642491.965 0
        49.000 0        40.000 0
 -16112798.63647 -12407890.97645  23014037.674 0  23014036.893 0  23014036.551 0
        45.000 0        30.000 0
 -11475813.28247  -8741492.62044  24024333.969 0  24024333.032 0  24024331.879 0
        43.000 0        26.000 0
 -12767394.61345     10512.84441  25784052.672 0  25784053.317 0  25784057.097 0
        33.000 0        10.000 0
  -6779492.39946  -5036797.79542  24572898.927 0  24572898.478 0  24572899.982 0
        38.000 0        12.000 0
 -35121835.97047 -27069232.23444  23688479.780 0  23688479.253 0  23688482.027 0
        43.000 0        28.000 0
 -30062899.11347 -23367487.71145  22448938.640 0  22448939.167 0  22448941.326 0
        45.000 0        34.000 0
 -12768370.58945  -1568742.73641  25030623.478 0  25030622.492 0  25030624.670 0
        34.000 0         8.000 0
-319022564.691 6          .000 0  21862522.733 0          .000 0          .000 0
        40.000 0          .000 0
  -6267925.177 5          .000 0  22783174.968 0          .000 0          .000 0
        35.000 0          .000 0
-180220780.051 6          .000 0  21170942.677 0          .000 0          .000 0
        40.000 0          .000 0
 15 01 01 00 00 10.0000000  0 14G12G14G25G02G29G31G03G10G24G06G20S36
                                S20S26
 -45944835.44548 -35320471.08047  20581765.997 0  20581765.392 0  20581764.298 0
        52.000 0        44.000 0
 -22052587.25146 -14089568.01742  24428246.175 0  24428245.100 0  24428245.129 0
        39.000 0        16.000 0
 -36671765.86548 -28370257.27647  21005130.777 0  21005129.693 0  21005132.242 0
        50.000 0        42.000 0
 -32711188.74748 -23056760.98146  21642029.617 0  21642027.985 0  21642025.797 0
        49.000 0        40.000 0
 -16117472.68247 -12411533.08945  23013148.134 0  23013147.440 0  23013147.157 0
        45.000 0        30.000 0
 -11480158.56647  -8744878.55444  24023507.015 0  24023506.126 0  24023504.993 0
        43.000 0        26.000 0
 -12766830.38945     10952.49841  25784159.861 0  25784160.564 0  25784164.510 0
        34.000 0        10.000 0
  -6783646.51146  -5040034.76542  24572108.282 0  24572107.950 0  24572109.444 0
        38.000 0        12.000 0
 -35119705.56247 -27067572.17744  23688885.199 0  23688884.632 0  23688887.396 0
        43.000 0        28.000 0
 -30062574.37247 -23367234.66745  22449000.513 0  22449000.982 0  22449003.111 0
        45.000 0        34.000 0
 -12768490.66345  -1568836.30141  25030600.249 0  25030599.624 0  25030601.870 0
        34.000 0         8.000 0
-319024045.450 6          .000 0  21862240.533 0          .000 0          .000 0
        40.000 0          .000 0
  -6269434.514 5          .000 0  22782887.728 0          .000 0          .000 0
        35.000 0          .000 0
-180222212.372 6          .000 0  21170669.317 0          .000 0          .000 0
        40.000 0          .000 0
 15 01 01 00 00 11.0000000  0 14G12G14G25G02G29G31G03G10G24G06G20S36
                                S20S26
 -45945223.90448 -35320773.77647  20581692.129 0  20581691.474 0  20581690.370 0
        52.000 0        44.000 0
 -22051889.73546 -14089024.49942  24428379.299 0  24428377.863 0  24428377.863 0
        39.000 0        16.000 0
 -36674875.86648 -28372680.65347  21004538.890 0  21004537.883 0  21004540.423 0
        50.000 0        42.000 0
 -32713637.94048 -23058669.44246  21641563.576 0  21641561.925 0  21641559.737 0
        49.000 0        40.000 0
 -16122146.52747 -12415175.04645  23012258.642 0  23012258.007 0  23012257.772 0
        45.000 0        30.000 0
 -11484503.52447  -8748264.23544  24022680.217 0  24022679.269 0  24022678.156 0
        43.000 0        26.000 0
 -12766265.77245     11392.45941  25784268.017 0  25784267.860 0  25784271.914 0
        33.000 0        10.000 0
  -6787800.30046  -5043271.48542  24571318.252 0  24571317.480 0  24571318.965 0
        38.000 0        12.000 0
 -35117574.99047 -27065911.99144  23689290.763 0  23689290.050 0  23689292.795 0
        43.000 0        28.000 0
 -30062249.09847 -23366981.20845  22449062.581 0  22449062.894 0  22449065.023 0
        45.000 0        34.000 0
 -12768610.18745  -1568929.43741  25030577.655 0  25030576.854 0  25030579.120 0
        34.000 0         8.000 0
-319025526.289 6          .000 0  21861958.988 0          .000 0          .000 0
        40.000 0          .000 0
  -6270943.869 6          .000 0  22782601.464 0          .000 0          .000 0
        36.000 0          .000 0
-180223644.765 6          .000 0  21170397.306 0          .000 0          .000 0
        40.000 0          .000 0
 15 01 01 00 00 12.0000000  0 14G12G14G25G02G29G31G03G10G24G06G20S36
                                S20S26
 -45945611.89148 -35321076.10447  20581618.260 0  20581617.645 0  20581616.541 0
        52.000 0        44.000 0
 -22051191.80346 -14088480.65642  24428512.461 0  24428510.693 0  24428510.664 0
        39.000 0        16.000 0
 -36677985.44248 -28375103.70047  21003947.110 0  21003946.133 0  21003948.682 0
        50.000 0        42.000 0
 -32716086.59948 -23060577.48946  21641097.662 0  21641095.982 0  21641093.774 0
        50.000 0        40.000 0
 -16126820.14647 -12418816.82745  23011369.287 0  23011368.623 0  23011368.427 0
        45.000 0        30.000 0
 -11488848.13247  -8751649.64444  24021853.468 0  24021852.530 0  24021851.377 0
        43.000 0        26.000 0
 -12765700.67745     11832.79141  25784375.791 0  25784375.196 0  25784379.054 0
        34.000 0        10.000 0
  -6791953.71446  -5046507.91042  24570528.164 0  24570527.060 0  24570528.486 0
        38.000 0        12.000 0
 -35115444.23447 -27064251.66344  23689696.152 0  23689695.517 0  23689698.233 0
        43.000 0        28.000 0
 -30061923.27847 -23366727.32445  22449124.659 0  22449124.874 0  22449127.063 0
        46.000 0        34.000 0
 -12768729.17445  -1569022.15441  25030554.503 0  25030554.181 0  25030556.496 0
        34.000 0         8.000 0
-319027007.102 6          .000 0  21861676.994 0          .000 0          .000 0
        40.000 0          .000 0
  -6272453.179 6          .000 0  22782313.433 0          .000 0          .000 0
        36.000 0          .000 0
-180225077.029 6          .000 0  21170124.836 0          .000 0          .000 0
        40.000 0          .000 0
 15 01 01 00 00 13.0000000  0 14G12G14G25G02G29G31G03G10G24G06G20S36
                                S20S26
 -45945999.34648 -35321378.01747  20581544.548 0  20581543.922 0  20581542.809 0
        52.000 0        44.000 0
 -22050493.43646 -14087936.47442  24428645.458 0  24428643.661 0  24428643.495 0
        39.000 0        16.000 0
 -36681094.52948 -28377526.36447  21003355.427 0  21003354.480 0  21003357.039 0
        50.000 0        42.000 0
 -32718534.66448 -23062485.07146  21640631.826 0  21640630.165 0  21640627.899 0
        50.000 0        40.000 0
 -16131493.50747 -12422458.40745  23010480.039 0  23010479.316 0  23010479.072 0
        45.000 0        30.000 0
 -11493192.34847  -8755034.74744  24021026.718 0  24021025.868 0  24021024.677 0
        43.000 0        26.000 0
 -12765135.10145     12273.50241  25784483.791 0  25784482.677 0  25784486.389 0
        34.000 0        10.000 0
  -6796106.69146  -5049743.99442  24569738.124 0  24569736.747 0  24569738.095 0
        39.000 0        12.000 0
 -35113313.25247 -27062591.15844  23690101.727 0  23690101.024 0  23690103.710 0
        43.000 0        28.000 0
 -30061596.85447 -23366472.96845  22449186.865 0  22449186.972 0  22449189.209 0
        45.000 0        34.000 0
 -12768847.59145  -1569114.42641  25030532.515 0  25030531.626 0  25030534.000 0
        33.000 0         8.000 0
-319028487.906 6          .000 0  21861395.790 0          .000 0          .000 0
        40.000 0          .000 0
  -6273962.292 6          .000 0  22782026.564 0          .000 0          .000 0
        36.000 0          .000 0
-180226509.342 6          .000 0  21169852.170 0          .000 0          .000 0
        40.000 0          .000 0
 15 01 01 00 00 14.0000000  0 14G12G14G25G02G29G31G03G10G24G06G20S36
                                S20S26
 -45946386.30848 -35321679.54547  20581470.943 0  20581470.288 0  20581469.165 0
        52.000 0        44.000 0
 -22049794.64446 -14087391.96142  24428778.348 0  24428776.707 0  24428776.404 0
        39.000 0        16.000 0
 -36684203.16748 -28379948.68047  21002763.901 0  21002762.934 0  21002765.474 0
        50.000 0        42.000 0
 -32720982.17948 -23064392.22646  21640166.234 0  21640164.456 0  21640162.132 0
        50.000 0        40.000 0
 -16136166.63047 -12426099.80145  23009590.899 0  23009590.049 0  23009589.766 0
        45.000 0        30.000 0
 -11497536.21447  -8758419.57744  24020200.233 0  24020199.275 0  24020198.074 0
        43.000 0        26.000 0
 -12764569.08145     12714.55941  25784591.595 0  25784590.394 0  25784594.340 0
        34.000 0        10.000 0
  -6800259.32046  -5052979.81042  24568948.006 0  24568946.639 0  24568947.860 0
        39.000 0        12.000 0
 -35111182.07347 -27060930.49944  23690507.213 0  23690506.559 0  23690509.255 0
        43.000 0        28.000 0
 -30061269.86647 -23366218.17345  22449249.109 0  22449249.177 0  22449251.453 0
        46.000 0        34.000 0
 -12768965.38445  -1569206.21141  25030510.145 0  25030509.217 0  25030511.601 0
        34.000 0         8.000 0
-319029968.686 6          .000 0  21861114.577 0          .000 0          .000 0
        39.000 0          .000 0
  -6275471.568 5          .000 0  22781740.506 0          .000 0          .000 0
        35.000 0          .000 0
-180227941.777 6          .000 0  21169580.023 0          .000 0          .000 0
        40.000 0          .000 0
 15 01 01 00 00 15.0000000  0 14G12G14G25G02G29G31G03G10G24G06G20S36
                                S20S26
 -45946772.81248 -35321980.71747  20581397.416 0  20581396.742 0  20581395.628 0
        52.000 0        44.000 0
 -22049095.47146 -14086847.15142  24428911.530 0  24428909.733 0  24428909.450 0
        39.000 0        16.000 0
 -36687311.40148 -28382370.68047  21002172.532 0  21002171.467 0  21002173.987 0
        50.000 0        42.000 0
 -32723429.17648 -23066298.97746  21639700.604 0  21639698.835 0  21639696.462 0
        50.000 0        40.000 0
 -16140839.55647 -12429741.04145  23008701.622 0  23008700.841 0  23008700.558 0
        45.000 0        30.000 0
 -11501879.75747  -8761804.15444  24019373.669 0  24019372.741 0  24019371.530 0
        43.000 0        26.000 0
 -12764002.59345     13155.97741  25784699.399 0  25784698.207 0  25784702.310 0
        34.000 0         8.000 0
  -6804411.58846  -5056215.34142  24568157.908 0  24568156.580 0  24568157.683 0
        39.000 0        12.000 0
 -35109050.74747 -27059269.72744  23690912.769 0  23690912.134 0  23690914.820 0
        43.000 0        28.000 0
 -30060942.33947 -23365962.95845  22449311.578 0  22449311.471 0  22449313.786 0
        46.000 0        34.000 0
 -12769082.66645  -1569297.60241  25030488.088 0  25030486.916 0  25030489.270 0
        34.000 0         6.000 0
-319031449.443 6          .000 0  21860833.032 0          .000 0          .000 0
        40.000 0          .000 0
  -6276980.899 6          .000 0  22781451.703 0          .000 0          .000 0
        36.000 0          .000 0
-180229374.216 6          .000 0  21169307.797 0          .000 0          .000 0
        40.000 0          .000 0
 15 01 01 00 00 16.0000000  0 14G12G14G25G02G29G31G03G10G24G06G20S36
                                S20S26
 -45947158.85448 -35322281.52947  20581323.996 0  20581323.283 0  20581322.170 0
        52.000 0        44.000 0
 -22048395.92146 -14086302.04942  24429044.781 0  24429042.847 0  24429042.564 0
        39.000 0        16.000 0
 -36690419.20648 -28384792.34647  21001581.221 0  21001580.088 0  21001582.598 0
        50.000 0        42.000 0
 -32725875.63848 -23068205.31146  21639235.110 0  21639233.293 0  21639230.890 0
        50.000 0        40.000 0
 -16145512.27147 -12433382.11845  23007812.560 0  23007811.672 0  23007811.398 0
        46.000 0        30.000 0
 -11506222.96347  -8765188.47044  24018547.193 0  24018546.256 0  24018545.064 0
        43.000 0        26.000 0
 -12763435.65545     13597.75041  25784807.750 0  25784806.139 0  25784810.075 0
        34.000 0        10.000 0
  -6808563.52846  -5059450.62042  24567367.947 0  24567366.501 0  24567367.556 0
        39.000 0        12.000 0
 -35106919.25047 -27057608.82144  23691318.275 0  23691317.737 0  23691320.404 0
        43.000 0        28.000 0
 -30060614.27347 -23365707.32445  22449374.115 0  22449373.852 0  22449376.206 0
        46.000 0        34.000 0
 -12769199.41045  -1569388.57241  25030466.090 0  25030464.702 0  25030467.076 0
        34.000 0         6.000 0
-319032930.234 6          .000 0  21860551.536 0          .000 0          .000 0
        40.000 0          .000 0
  -6278490.328 6          .000 0  22781164.766 0          .000 0          .000 0
        36.000 0          .000 0
-180230806.735 6          .000 0  21169034.994 0          .000 0          .000 0
        40.000 0          .000 0
 15 01 01 00 00 17.0000000  0 14G12G14G25G02G29G31G03G10G24G06G20S36
                                S20S26
 -45947544.34148 -35322581.90847  20581250.675 0  20581249.923 0  20581248.829 0
        52.000 0        44.000 0
 -22047695.87646 -14085756.55942  24429177.905 0  24429176.078 0  24429175.756 0
        39.000 0        16.000 0
 -36693526.50748 -28387213.62047  21000989.988 0  21000988.806 0  21000991.297 0
        50.000 0        42.000 0
 -32728321.48148 -23070111.16246  21638769.723 0  21638767.887 0  21638765.444 0
        50.000 0        40.000 0
 -16150184.67647 -12437022.95245  23006923.528 0  23006922.512 0  23006922.268 0
        46.000 0        30.000 0
 -11510565.73947  -8768572.45044  24017720.727 0  24017719.848 0  24017718.676 0
        43.000 0        26.000 0
 -12762868.21445     14039.91541  25784915.056 0  25784914.158 0  25784917.967 0
        33.000 0        10.000 0
  -6812714.98446  -5062685.52142  24566577.946 0  24566576.500 0  24566577.516 0
        39.000 0        12.000 0
 -35104787.49047 -27055947.71144  23691723.742 0  23691723.390 0  23691726.037 0
        43.000 0        28.000 0
 -30060285.59247 -23365451.21045  22449436.692 0  22449436.350 0  22449438.743 0
        46.000 0        34.000 0
 -12769315.49145  -1569479.02541  25030444.199 0  25030442.597 0  25030445.009 0
        34.000 0         8.000 0
-319034410.992 6          .000 0  21860269.747 0          .000 0          .000 0
        40.000 0          .000 0
  -6279999.675 5          .000 0  22780876.256 0          .000 0          .000 0
        35.000 0          .000 0
-180232239.188 6          .000 0  21168762.075 0          .000 0          .000 0
        40.000 0          .000 0
 15 01 01 00 00 18.0000000  0 14G12G14G25G02G29G31G03G10G24G06G20S36
                                S20S26
 -45947929.23748 -35322881.82747  20581177.412 0  20581176.689 0  20581175.585 0
        52.000 0        44.000 0
 -22046995.32846 -14085210.67642  24429311.341 0  24429309.407 0  24429309.046 0
        39.000 0        16.000 0
 -36696633.25648 -28389634.46347  21000398.901 0  21000397.612 0  21000400.093 0
        50.000 0        42.000 0
 -32730766.67248 -23072016.50646  21638304.483 0  21638302.598 0  21638300.136 0
        50.000 0        40.000 0
 -16154856.76347 -12440663.54045  23006034.505 0  23006033.440 0  23006033.206 0
        46.000 0        30.000 0
 -11514908.04847  -8771956.06644  24016894.525 0  24016893.558 0  24016892.376 0
        43.000 0        26.000 0
 -12762300.18145     14482.53941  25785022.587 0  25785022.226 0  25785026.094 0
        32.000 0         8.000 0
  -6816865.97146  -5065920.05541  24565788.307 0  24565786.607 0  24565787.584 0
        39.000 0        10.000 0
 -35102655.40147 -27054286.34344  23692129.482 0  23692129.111 0  23692131.758 0
        42.000 0        28.000 0
 -30059956.20147 -23365194.54345  22449499.249 0  22449498.995 0  22449501.407 0
        46.000 0        34.000 0
 -12769430.92045  -1569568.97041  25030422.571 0  25030420.588 0  25030423.069 0
        34.000 0         8.000 0
-319035891.641 6          .000 0  21859987.684 0          .000 0          .000 0
        40.000 0          .000 0
  -6281508.907 5          .000 0  22780588.166 0          .000 0          .000 0
        35.000 0          .000 0
-180233671.517 6          .000 0  21168489.009 0          .000 0          .000 0
        40.000 0          .000 0
 15 01 01 00 00 19.0000000  0 14G12G14G25G02G29G31G03G10G24G06G20S36
                                S20S26
 -45948313.64448 -35323181.36547  20581104.276 0  20581103.533 0  20581102.439 0
        52.000 0        44.000 0
 -22046294.36546 -14084664.47142  24429444.543 0  24429442.824 0  24429442.424 0
        40.000 0        16.000 0
 -36699739.54848 -28392054.95047  20999807.717 0  20999806.496 0  20999808.987 0
        50.000 0        42.000 0
 -32733211.30348 -23073921.41346  21637839.282 0  21637837.426 0  21637834.935 0
        50.000 0        40.000 0
 -16159528.60947 -12444303.93945  23005145.580 0  23005144.466 0  23005144.154 0
        46.000 0        30.000 0
 -11519250.00947  -8775339.41244  24016068.303 0  24016067.336 0  24016066.125 0
        43.000 0        26.000 0
 -12761731.59845     14925.59141  25785130.733 0  25785130.401 0  25785134.328 0
        32.000 0         8.000 0
  -6821016.56346  -5069154.28242  24564998.111 0  24564996.773 0  24564997.730 0
        39.000 0        12.000 0
 -35100523.12647 -27052624.83144  23692535.252 0  23692534.871 0  23692537.519 0
        43.000 0        28.000 0
 -30059626.25547 -23364937.44245  22449561.962 0  22449561.766 0  22449564.199 0
        46.000 0        34.000 0
 -12769545.76545  -1569658.46041  25030400.866 0  25030398.678 0  25030401.237 0
        34.000 0         6.000 0
-319037372.281 6          .000 0  21859706.852 0          .000 0          .000 0
        40.000 0          .000 0
  -6283018.200 6          .000 0  22780301.141 0          .000 0          .000 0
        36.000 0          .000 0
-180235103.723 6          .000 0  21168216.167 0          .000 0          .000 0
        40.000 0          .000 0
 15 01 01 00 00 20.0000000  0 14G12G14G25G02G29G31G03G10G24G06G20S36
                                S20S26
 -45948697.57648 -35323480.53347  20581031.218 0  20581030.475 0  20581029.391 0
        52.000 0        44.000 0
 -22045593.00946 -14084117.96042  24429577.892 0  24429576.319 0  24429575.860 0
        40.000 0        16.000 0
 -36702845.42448 -28394475.11347  20999216.748 0  20999215.478 0  20999217.959 0
        50.000 0        42.000 0
 -32735655.38948 -23075825.89646  21637374.120 0  21637372.362 0  21637369.851 0
        50.000 0        40.000 0
 -16164200.23947 -12447944.17045  23004256.537 0  23004255.521 0  23004255.140 0
        45.000 0        30.000 0
 -11523591.61747  -8778722.48244  24015242.228 0  24015241.173 0  24015239.962 0
        43.000 0        26.000 0
 -12761162.57445     15368.98441  25785239.299 0  25785238.654 0  25785242.659 0
        33.000 0         8.000 0
  -6825166.81246  -5072388.24642  24564208.248 0  24564206.978 0  24564208.013 0
        39.000 0        12.000 0
 -35098390.65847 -27050963.16944  23692941.032 0  23692940.661 0  23692943.328 0
        43.000 0        28.000 0
 -30059295.75947 -23364679.91545  22449624.909 0  22449624.685 0  22449627.117 0
        46.000 0        34.000 0
 -12769659.98645  -1569747.46441  25030378.897 0  25030376.953 0  25030379.483 0
        34.000 0         8.000 0
-319038853.014 6          .000 0  21859424.526 0          .000 0          .000 0
        40.000 0          .000 0
  -6284527.605 5          .000 0  22780014.448 0          .000 0          .000 0
        35.000 0          .000 0
-180236535.997 6          .000 0  21167943.599 0          .000 0          .000 0
        40.000 0          .000 0
 15 01 01 00 00 21.0000000  0 14G12G14G25G02G29G31G03G10G24G06G20S36
                                S20S26
 -45949080.98048 -35323779.28947  20580958.267 0  20580957.515 0  20580956.441 0
        52.000 0        44.000 0
 -22044891.19846 -14083571.09442  24429711.358 0  24429709.922 0  24429709.375 0
        39.000 0        16.000 0
 -36705950.81548 -28396894.89847  20998625.740 0  20998624.538 0  20998627.019 0
        50.000 0        42.000 0
 -32738098.89748 -23077729.92746  21636909.007 0  21636907.386 0  21636904.875 0
        50.000 0        40.000 0
 -16168871.58747 -12451584.18145  23003367.593 0  23003366.616 0  23003366.196 0
        46.000 0        30.000 0
 -11527932.83347  -8782105.24944  24014416.319 0  24014415.078 0  24014413.877 0
        43.000 0        26.000 0
 -12760593.15245     15812.68841  25785347.680 0  25785346.957 0  25785351.050 0
        32.000 0         8.000 0
  -6829316.60946  -5075621.85342  24563418.491 0  24563417.280 0  24563418.374 0
        39.000 0        12.000 0
 -35096257.97047 -27049301.33644  23693346.861 0  23693346.499 0  23693349.176 0
        43.000 0        28.000 0
 -30058964.67347 -23364421.92645  22449688.023 0  22449687.730 0  22449690.143 0
        46.000 0        34.000 0
 -12769773.72345  -1569836.08941  25030356.801 0  25030355.345 0  25030357.758 0
        34.000 0         8.000 0
-319040333.765 6          .000 0  21859142.590 0          .000 0          .000 0
        40.000 0          .000 0
  -6286036.963 5          .000 0  22779726.495 0          .000 0          .000 0
        35.000 0          .000 0
-180237968.263 6          .000 0  21167671.461 0          .000 0          .000 0
        40.000 0          .000 0
 15 01 01 00 00 22.0000000  0 14G12G14G25G02G29G31G03G10G24G06G20S36
                                S20S26
 -45949463.83048 -35324077.61447  20580885.414 0  20580884.643 0  20580883.588 0
        52.000 0        44.000 0
 -22044188.92146 -14083023.86742  24429844.902 0  24429843.602 0  24429842.968 0
        39.000 0        16.000 0
 -36709055.69848 -28399314.28747  20998034.839 0  20998033.686 0  20998036.168 0
        50.000 0        42.000 0
 -32740541.77848 -23079633.47146  21636444.051 0  21636442.546 0  21636440.026 0
        50.000 0        40.000 0
 -16173542.65947 -12455223.97745  23002478.687 0  23002477.749 0  23002477.310 0
        46.000 0        30.000 0
 -11532273.61647  -8785487.67644  24013590.400 0  24013589.052 0  24013587.831 0
        43.000 0        26.000 0
 -12760023.07645     16256.89941  25785456.031 0  25785455.288 0  25785459.479 0
        32.000 0         8.000 0
  -6833465.99146  -5078855.13842  24562629.038 0  24562627.729 0  24562628.862 0
        38.000 0        12.000 0
 -35094124.99047 -27047639.27544  23693752.914 0  23693752.396 0  23693755.073 0
        43.000 0        28.000 0
 -30058632.93447 -23364163.43045  22449751.137 0  22449750.902 0  22449753.276 0
        46.000 0        34.000 0
 -12769886.73045  -1569924.14341  25030335.183 0  25030333.864 0  25030336.209 0
        34.000 0         8.000 0
-319041814.450 6          .000 0  21858860.312 0          .000 0          .000 0
        40.000 0          .000 0
  -6287546.160 6          .000 0  22779440.632 0          .000 0          .000 0
        36.000 0          .000 0
-180239400.501 6          .000 0  21167399.157 0          .000 0          .000 0
        40.000 0          .000 0
 15 01 01 00 00 23.0000000  0 14G12G14G25G02G29G31G03G10G24G06G20S36
                                S20S26
 -45949846.10248 -35324375.48847  20580812.610 0  20580811.897 0  20580810.852 0
        52.000 0        44.000 0
 -22043486.13846 -14082476.24542  24429978.739 0  24429977.410 0  24429976.707 0
        39.000 0        16.000 0
 -36712160.03848 -28401733.25447  20997444.075 0  20997442.952 0  20997445.423 0
        50.000 0        42.000 0
 -32742984.01148 -23081536.51046  21635979.279 0  21635977.824 0  21635975.274 0
        50.000 0        40.000 0
 -16178213.38847 -12458863.50745  23001589.801 0  23001588.932 0  23001588.492 0
        46.000 0        30.000 0
 -11536613.95547  -8788869.75944  24012764.374 0  24012763.114 0  24012761.873 0
        43.000 0        26.000 0
 -12759452.49145     16701.50741  25785564.011 0  25785563.776 0  25785567.987 0
        32.000 0         8.000 0
  -6837614.89246  -5082088.05342  24561839.526 0  24561838.236 0  24561839.408 0
        39.000 0        12.000 0
 -35091991.73447 -27045976.99944  23694158.889 0  23694158.352 0  23694161.028 0
        43.000 0        28.000 0
 -30058300.55547 -23363904.43545  22449814.436 0  22449814.182 0  22449816.546 0
        46.000 0        34.000 0
 -12769999.15545  -1570011.74441  25030313.292 0  25030312.472 0  25030314.767 0
        34.000 0         8.000 0
-319043295.122 6          .000 0  21858578.406 0          .000 0          .000 0
        40.000 0          .000 0
  -6289055.223 6          .000 0  22779152.347 0          .000 0          .000 0
        36.000 0          .000 0
-180240832.605 6          .000 0  21167127.527 0          .000 0          .000 0
        40.000 0          .000 0
 15 01 01 00 00 24.0000000  0 13G12G14G25G02G29G31G10G24G06G20S36S20
                                S26
 -45950227.82548 -35324672.93547  20580739.953 0  20580739.259 0  20580738.224 0
        52.000 0        44.000 0
 -22042782.88446 -14081928.25542  24430112.673 0  24430111.325 0  24430110.554 0
        39.000 0        16.000 0
 -36715263.88548 -28404151.83647  20996853.399 0  20996852.305 0  20996854.796 0
        50.000 0        42.000 0
 -32745425.63848 -23083439.07746  21635514.694 0  21635513.219 0  21635510.650 0
        49.000 0        40.000 0
 -16182883.83247 -12462502.81345  23000701.052 0  23000700.153 0  23000699.733 0
        46.000 0        30.000 0
 -11540953.88747  -8792251.52444  24011938.445 0  24011937.273 0  24011936.013 0
        43.000 0        26.000 0
  -6841763.34546  -5085320.61742  24561050.072 0  24561048.753 0  24561049.935 0
        39.000 0        12.000 0
 -35089858.25047 -27044314.54644  23694564.874 0  23694564.336 0  23694567.032 0
        43.000 0        28.000 0
 -30057967.54847 -23363644.94945  22449877.823 0  22449877.540 0  22449879.914 0
        46.000 0        34.000 0
 -12770110.84045  -1570098.76841  25030292.231 0  25030291.225 0  25030293.511 0
        34.000 0         8.000 0
-319044775.735 6          .000 0  21858297.359 0          .000 0          .000 0
        40.000 0          .000 0
  -6290564.332 5          .000 0  22778865.351 0          .000 0          .000 0
        35.000 0          .000 0
-180242264.632 6          .000 0  21166855.184 0          .000 0          .000 0
        40.000 0          .000 0
 15 01 01 00 00 25.0000000  0 14G12G14G25G02G29G31G03G10G24G06G20S36
                                S20S26
 -45950609.02848 -35324969.97647  20580667.393 0  20580666.719 0  20580665.694 0
        52.000 0        44.000 0
 -22042079.19746 -14081379.92842  24430246.374 0  24430245.279 0  24430244.478 0
        39.000 0        16.000 0
 -36718367.26348 -28406570.05247  20996262.820 0  20996261.765 0  20996264.256 0
        50.000 0        42.000 0
 -32747866.67648 -23085341.18446  21635050.099 0  21635048.702 0  21635046.123 0
        49.000 0        40.000 0
 -16187554.01947 -12466141.92045  22999812.244 0  22999811.404 0  22999811.052 0
        45.000 0        30.000 0
 -11545293.42147  -8795632.98044  24011112.516 0  24011111.491 0  24011110.211 0
        43.000 0        26.000 0
 -12758309.74745     17591.94341  25785781.172 0  25785781.436 0  25785785.099 0
        32.000 0         8.000 0
  -6845911.41546  -5088552.88242  24560261.058 0  24560259.368 0  24560260.541 0
        39.000 0        12.000 0
 -35087724.51147 -27042651.89244  23694970.819 0  23694970.390 0  23694973.086 0
        43.000 0        28.000 0
 -30057633.94347 -23363384.99845  22449941.465 0  22449941.025 0  22449943.379 0
        46.000 0        34.000 0
 -12770222.06745  -1570185.43541  25030270.741 0  25030270.067 0  25030272.362 0
        34.000 0         8.000 0
-319046256.383 6          .000 0  21858015.970 0          .000 0          .000 0
        40.000 0          .000 0
  -6292073.414 5          .000 0  22778578.902 0          .000 0          .000 0
        35.000 0          .000 0
-180243696.707 6          .000 0  21166581.326 0          .000 0          .000 0
        40.000 0          .000 0
 15 01 01 00 00 26.0000000  0 14G12G14G25G02G29G31G03G10G24G06G20S36
                                S20S26
 -45950989.71348 -35325266.61347  20580595.009 0  20580594.277 0  20580593.271 0
        52.000 0        44.000 0
 -22041375.08046 -14080831.26542  24430380.416 0  24430379.312 0  24430378.491 0
        39.000 0        16.000 0
 -36721470.16048 -28408987.89447  20995672.340 0  20995671.324 0  20995673.795 0
        50.000 0        42.000 0
 -32750307.14048 -23087242.84546  21634585.699 0  21634584.302 0  21634581.723 0
        49.000 0        40.000 0
 -16192223.94947 -12469780.82645  22998923.445 0  22998922.693 0  22998922.420 0
        45.000 0        32.000 0
 -11549632.58647  -8799014.14744  24010286.783 0  24010285.796 0  24010284.487 0
        43.000 0        26.000 0
 -12757737.65545     18037.72041  25785890.178 0  25785890.325 0  25785893.900 0
        32.000 0         8.000 0
  -6850059.06246  -5091784.81542  24559471.927 0  24559470.100 0  24559471.234 0
        39.000 0        12.000 0
 -35085590.56547 -27040989.07844  23695376.853 0  23695376.482 0  23695379.139 0
        43.000 0        28.000 0
 -30057299.74347 -23363124.58345  22450005.067 0  22450004.647 0  22450006.962 0
        46.000 0        34.000 0
 -12770332.57545  -1570271.54041  25030249.583 0  25030249.075 0  25030251.331 0
        34.000 0         8.000 0
-319047737.062 6          .000 0  21857733.692 0          .000 0          .000 0
        40.000 0          .000 0
  -6293582.521 6          .000 0  22778290.138 0          .000 0          .000 0
        36.000 0          .000 0
-180245128.930 6          .000 0  21166307.332 0          .000 0          .000 0
        40.000 0          .000 0
 15 01 01 00 00 27.0000000  0 14G12G14G25G02G29G31G03G10G24G06G20S36
                                S20S26
 -45951369.99748 -35325562.93947  20580522.645 0  20580521.922 0  20580520.926 0
        52.000 0        44.000 0
 -22040670.61746 -14080282.33242  24430514.487 0  24430513.422 0  24430512.572 0
        39.000 0        16.000 0
 -36724572.69948 -28411405.45747  20995081.966 0  20995080.960 0  20995083.393 0
        50.000 0        42.000 0
 -32752747.12848 -23089144.13446  21634121.348 0  21634119.970 0  21634117.431 0
        49.000 0        40.000 0
 -16196893.72047 -12473419.60945  22998034.706 0  22998034.012 0  22998033.817 0
        45.000 0        32.000 0
 -11553971.46147  -8802395.08944  24009460.903 0  24009460.141 0  24009458.813 0
        43.000 0        26.000 0
 -12757165.18445     18483.79041  25785999.379 0  25785999.272 0  25786002.808 0
        33.000 0         8.000 0
  -6854206.41846  -5095016.52442  24558682.737 0  24558680.891 0  24558681.985 0
        39.000 0        12.000 0
 -35083456.50047 -27039326.17244  23695782.926 0  23695782.574 0  23695785.231 0
        43.000 0        28.000 0
 -30056965.07847 -23362863.80645  22450068.845 0  22450068.346 0  22450070.661 0
        46.000 0        34.000 0
 -12770442.69245  -1570357.34441  25030229.206 0  25030228.170 0  25030230.339 0
        34.000 0         6.000 0
-319049217.917 6          .000 0  21857451.444 0          .000 0          .000 0
        40.000 0          .000 0
  -6295091.731 6          .000 0  22778003.660 0          .000 0          .000 0
        36.000 0          .000 0
-180246561.137 6          .000 0  21166034.354 0          .000 0          .000 0
        40.000 0          .000 0
 15 01 01 00 00 28.0000000  0 14G12G14G25G02G29G31G03G10G24G06G20S36
                                S20S26
 -45951749.75748 -35325858.85547  20580450.427 0  20580449.646 0  20580448.669 0
        52.000 0        44.000 0
 -22039965.73146 -14079733.07142  24430648.597 0  24430647.611 0  24430646.722 0
        39.000 0        16.000 0
 -36727674.76448 -28413822.65047  20994491.681 0  20994490.675 0  20994493.088 0
        50.000 0        42.000 0
 -32755186.54448 -23091044.97846  21633657.153 0  21633655.746 0  21633653.236 0
        49.000 0        40.000 0
 -16201563.25747 -12477058.20845  22997146.044 0  22997145.380 0  22997145.253 0
        45.000 0        32.000 0
 -11558309.95247  -8805775.73144  24008635.121 0  24008634.574 0  24008633.226 0
        42.000 0        26.000 0
 -12756592.24345     18930.23441  25786109.137 0  25786108.316 0  25786111.999 0
        33.000 0         8.000 0
  -6858353.35746  -5098247.90642  24557893.675 0  24557891.799 0  24557892.893 0
        39.000 0        12.000 0
 -35081322.23847 -27037663.11244  23696189.243 0  23696188.676 0  23696191.363 0
        43.000 0        28.000 0
 -30056629.80147 -23362602.55245  22450132.749 0  22450132.154 0  22450134.518 0
        46.000 0        34.000 0
 -12770552.15145  -1570442.63641  25030207.998 0  25030207.334 0  25030209.444 0
        34.000 0         6.000 0
-319050698.719 6          .000 0  21857170.963 0          .000 0          .000 0
        40.000 0          .000 0
  -6296600.988 6          .000 0  22777715.463 0          .000 0          .000 0
        36.000 0          .000 0
-180247993.148 6          .000 0  21165762.900 0          .000 0          .000 0
        40.000 0          .000 0
 15 01 01 00 00 29.0000000  0 14G12G14G25G02G29G31G03G10G24G06G20S36
                                S20S26
 -45952128.99448 -35326154.36547  20580378.268 0  20580377.477 0  20580376.519 0
        52.000 0        44.000 0
 -22039260.39246 -14079183.45642  24430782.854 0  24430781.839 0  24430780.959 0
        40.000 0        16.000 0
 -36730776.35748 -28416239.47647  20993901.464 0  20993900.468 0  20993902.851 0
        50.000 0        42.000 0
 -32757625.36848 -23092945.36046  21633193.046 0  21633191.649 0  21633189.148 0
        49.000 0        40.000 0
 -16206232.50247 -12480696.58145  22996257.383 0  22996256.836 0  22996256.748 0
        45.000 0        30.000 0
 -11562648.04447  -8809156.06344  24007809.241 0  24007809.065 0  24007807.707 0
        42.000 0        26.000 0
 -12756018.73245     19377.11941  25786219.178 0  25786217.469 0  25786221.268 0
        34.000 0         8.000 0
  -6862499.88046  -5101478.96642  24557104.553 0  24557102.776 0  24557103.870 0
        39.000 0        12.000 0
 -35079187.74247 -27035999.87044  23696595.306 0  23696594.808 0  23696597.523 0
        43.000 0        28.000 0
 -30056293.92847 -23362340.83345  22450196.684 0  22450196.078 0  22450198.471 0
        46.000 0        34.000 0
 -12770661.03645  -1570527.48541  25030187.817 0  25030186.576 0  25030188.637 0
        34.000 0         6.000 0
-319052179.584 6          .000 0  21856889.682 0          .000 0          .000 0
        40.000 0          .000 0
  -6298110.258 5          .000 0  22777428.828 0          .000 0          .000 0
        35.000 0          .000 0
-180249425.247 6          .000 0  21165491.738 0          .000 0          .000 0
        40.000 0          .000 0
 15 01 01 00 00 30.0000000  0 14G12G14G25G02G29G31G03G10G24G06G20S36
                                S20S26
 -45952507.73248 -35326449.48547  20580306.265 0  20580305.396 0  20580304.458 0
        52.000 0        44.000 0
 -22038554.63146 -14078633.51442  24430917.502 0  24430916.144 0  24430915.265 0
        39.000 0        16.000 0
 -36733877.48348 -28418655.93747  20993311.452 0  20993310.358 0  20993312.732 0
        50.000 0        42.000 0
 -32760063.62548 -23094845.30146  21632729.056 0  21632727.650 0  21632725.169 0
        49.000 0        40.000 0
 -16210901.51447 -12484334.77245  22995368.780 0  22995368.331 0  22995368.302 0
        45.000 0        30.000 0
 -11566985.77947  -8812536.11744  24006983.625 0  24006983.596 0  24006982.248 0
        42.000 0        26.000 0
 -12755444.75845     19824.36841  25786328.447 0  25786326.699 0  25786330.460 0
        33.000 0         8.000 0
  -6866646.02146  -5104709.72742  24556315.510 0  24556313.801 0  24556314.836 0
        39.000 0        12.000 0
 -35077053.03847 -27034336.46644  23697001.564 0  23697000.978 0  23697003.723 0
        43.000 0        28.000 0
 -30055957.47847 -23362078.66545  22450260.735 0  22450260.139 0  22450262.523 0
        46.000 0        34.000 0
 -12770769.37445  -1570611.90641  25030167.362 0  25030165.945 0  25030167.938 0
        34.000 0         6.000 0
-319053660.497 6          .000 0  21856607.141 0          .000 0          .000 0
        40.000 0          .000 0
  -6299619.387 5          .000 0  22777142.848 0          .000 0          .000 0
        35.000 0          .000 0
-180250857.655 6          .000 0  21165219.600 0          .000 0          .000 0
        40.000 0          .000 0
 15 01 01 00 00 31.0000000  0 14G12G14G25G02G29G31G03G10G24G06G20S36
                                S20S26
 -45952885.91748 -35326744.17547  20580234.321 0  20580233.432 0  20580232.504 0
        52.000 0        44.000 0
 -22037848.38546 -14078083.19442  24431051.798 0  24431050.558 0  24431049.649 0
        39.000 0        16.000 0
 -36736978.10448 -28421072.00647  20992721.372 0  20992720.346 0  20992722.710 0
        50.000 0        42.000 0
 -32762501.26548 -23096744.76046  21632265.077 0  21632263.748 0  21632261.296 0
        49.000 0        40.000 0
 -16215570.22947 -12487972.73045  22994480.343 0  22994479.845 0  22994479.923 0
        45.000 0        30.000 0
 -11571323.06647  -8815915.82244  24006158.204 0  24006158.224 0  24006156.876 0
        42.000 0        26.000 0
 -12754870.29545     20271.99841  25786437.990 0  25786436.027 0  25786439.700 0
        34.000 0         8.000 0
  -6870791.69846  -5107940.12542  24555526.496 0  24555524.924 0  24555525.910 0
        39.000 0        12.000 0
 -35074918.05047 -27032672.84044  23697407.803 0  23697407.227 0  23697409.962 0
        43.000 0        28.000 0
 -30055620.39447 -23361816.00345  22450324.923 0  22450324.308 0  22450326.682 0
        46.000 0        34.000 0
 -12770876.97245  -1570695.75041  25030147.171 0  25030145.471 0  25030147.376 0
        34.000 0         6.000 0
-319055141.356 6          .000 0  21856325.566 0          .000 0          .000 0
        40.000 0          .000 0
  -6301128.410 6          .000 0  22776854.671 0          .000 0          .000 0
        36.000 0          .000 0
-180252289.928 6          .000 0  21164946.788 0          .000 0          .000 0
        40.000 0          .000 0
 15 01 01 00 00 32.0000000  0 14G12G14G25G02G29G31G03G10G24G06G20S36
                                S20S26
 -45953263.60148 -35327038.47447  20580162.415 0  20580161.556 0  20580160.638 0
        52.000 0        44.000 0
 -22037141.72046 -14077532.54842  24431186.300 0  24431185.039 0  24431184.102 0
        39.000 0        16.000 0
 -36740078.26148 -28423487.71347  20992131.409 0  20992130.393 0  20992132.767 0
        50.000 0        42.000 0
 -32764938.33648 -23098643.77746  21631801.204 0  21631799.964 0  21631797.551 0
        49.000 0        40.000 0
 -16220238.68247 -12491610.48545  22993592.190 0  22993591.428 0  22993591.614 0
        45.000 0        30.000 0
 -11575659.99047  -8819295.24344  24005332.656 0  24005332.940 0  24005331.592 0
        42.000 0        26.000 0
 -12754295.29345     20720.04441  25786547.856 0  25786545.462 0  25786548.793 0
        33.000 0         6.000 0
  -6874936.98446  -5111170.21742  24554737.688 0  24554736.115 0  24554737.131 0
        38.000 0        12.000 0
 -35072782.85747 -27031009.05544  23697814.296 0  23697813.563 0  23697816.259 0
        43.000 0        28.000 0
 -30055282.72847 -23361552.88745  22450389.239 0  22450388.545 0  22450390.938 0
        46.000 0        34.000 0
 -12770984.07045  -1570779.20341  25030126.676 0  25030125.065 0  25030126.940 0
        34.000 0         6.000 0
-319056622.274 6          .000 0  21856043.308 0          .000 0          .000 0
        40.000 0          .000 0
  -6302637.563 5          .000 0  22776566.317 0          .000 0          .000 0
        35.000 0          .000 0
-180253721.859 6          .000 0  21164673.849 0          .000 0          .000 0
        40.000 0          .000 0
 15 01 01 00 00 33.0000000  0 14G12G14G25G02G29G31G03G10G24G06G20S36
                                S20S26
 -45953640.78648 -35327332.38547  20580090.598 0  20580089.768 0  20580088.850 0
        52.000 0        44.000 0
 -22036434.62746 -14076981.56542  24431320.635 0  24431319.619 0  24431318.642 0
        39.000 0        16.000 0
 -36743177.97048 -28425903.07047  20991541.592 0  20991540.547 0  20991542.921 0
        50.000 0        42.000 0
 -32767374.85248 -23100542.36146  21631337.439 0  21631336.257 0  21631333.893 0
        49.000 0        40.000 0
 -16224906.90647 -12495248.06245  22992703.978 0  22992703.128 0  22992703.382 0
        45.000 0        32.000 0
 -11579996.55747  -8822674.38644  24004507.304 0  24004507.724 0  24004506.386 0
        42.000 0        26.000 0
 -12753719.82745     21168.45841  25786657.447 0  25786654.956 0  25786658.034 0
        33.000 0         8.000 0
  -6879081.87346  -5114399.99842  24553948.449 0  24553947.365 0  24553948.410 0
        38.000 0        12.000 0
 -35070647.47147 -27029345.12044  23698220.603 0  23698219.929 0  23698222.586 0
        43.000 0        28.000 0
 -30054944.49847 -23361289.33345  22450453.681 0  22450452.909 0  22450455.312 0
        46.000 0        34.000 0
 -12771090.61145  -1570862.22441  25030106.544 0  25030104.766 0  25030106.641 0
        34.000 0         6.000 0
-319058103.219 6          .000 0  21855761.949 0          .000 0          .000 0
        40.000 0          .000 0
  -6304146.851 6          .000 0  22776279.751 0          .000 0          .000 0
        36.000 0          .000 0
-180255153.766 6          .000 0  21164401.291 0          .000 0          .000 0
        40.000 0          .000 0
 15 01 01 00 00 34.0000000  0 14G12G14G25G02G29G31G03G10G24G06G20S36
                                S20S26
 -45954017.44348 -35327625.88447  20580018.908 0  20580018.077 0  20580017.169 0
        52.000 0        44.000 0
 -22035727.08746 -14076430.23542  24431454.989 0  24431454.267 0  24431453.270 0
        38.000 0        16.000 0
 -36746277.18548 -28428318.04447  20990951.981 0  20990950.770 0  20990953.153 0
        50.000 0        42.000 0
 -32769810.75748 -23102440.46946  21630873.821 0  21630872.668 0  21630870.363 0
        49.000 0        40.000 0
