     2.11           OBSERVATION DATA    G (GPS)             RINEX VERSION / TYPE
teqc  2013Mar15     gpsops              20150101 00:28:02UTCPGM / RUN BY / DATE
Linux 2.4.21-27.ELsmp|Opteron|gcc -static|Linux x86_64|=+   COMMENT
BIT 2 OF LLI FLAGS DATA COLLECTED UNDER A/S CONDITION       COMMENT
ABPO                                                        MARKER NAME
33302M001                                                   MARKER NUMBER
GGN                 JPL                                     OBSERVER / AGENCY
ZR520021812         ASHTECH UZ-12       CQ00                REC # / TYPE / VERS
CR6200342009        ASH701945G_M    SCIT                    ANT # / TYPE
  4097216.6805  4429119.0287 -2065771.3676                  APPROX POSITION XYZ
        0.0083        0.0000        0.0000                  ANTENNA: DELTA H/E/N
     1     1                                                WAVELENGTH FACT L1/2
     7    L1    L2    P1    P2    C1    S1    S2            # / TYPES OF OBSERV
     1.0000                                                 INTERVAL
                                                            COMMENT
This data is provided as a public service by NASA/JPL.      COMMENT
No warranty is expressed or implied regarding suitability   COMMENT
for use.  For further information, contact:                 COMMENT
Dave Stowers, NASA/JPL m/s 238-600                          COMMENT
4800 Oak Grove Drive, Pasadena CA 91109 USA                 COMMENT
                                                            COMMENT
 SNR is mapped to RINEX snr flag value [0-9]                COMMENT
  L1 & L2: min(max(int(snr_dBHz/6), 0), 9)                  COMMENT
pseudorange smoothing corrections not applied               COMMENT
  2015     1     1     0     0    0.0000000     GPS         TIME OF FIRST OBS
                                                            END OF HEADER
 15  1  1  0  0  0.0000000  0  9G29G05G15G13G02G24G26G12G21
   4462136.64547   3485958.01546  24437371.1214   24437376.1384   24437371.142
        45.0004         41.0004
 -13027619.87148 -10148154.83048  21567475.3554   21567478.0764   21567474.542
        53.0004         49.0004
 -19238090.62348 -14956923.69248  21738505.1294   21738507.6084   21738504.700
        53.0004         49.0004
   -596221.60447   -445384.67947  23110188.1194   23110190.6564   23110187.425
        47.0004         42.0004
   -890305.71047   -685318.47646  24054010.9214   24054014.8434   24054010.777
        45.0004         40.0004
 -20529545.82849 -15978771.62748  21046287.7634   21046293.1474   21046287.030
        55.0004         50.0004
  -1452182.22548  -1111442.70547  22905625.7124   22905628.5714   22905625.720
        49.0004         45.0004
  -3527846.34147  -2720134.39946  24686931.7354   24686933.2784   24686931.690
        42.0004         37.0004
  -7257133.65247  -5614601.70747  22848170.4034   22848173.4574   22848170.175
        47.0004         42.0004
 15  1  1  0  0  1.0000000  0  9G29G05G15G13G02G24G26G12G21
   4463710.74947   3487184.58946  24437670.3204   24437675.6154   24437670.583
        45.0004         41.0004
 -13026830.00648 -10147539.35348  21567625.1824   21567628.4134   21567624.870
        53.0004         49.0004
 -19238128.05148 -14956952.86148  21738498.0924   21738500.8304   21738497.628
        53.0004         49.0004
   -594242.37547   -443842.42147  23110563.6144   23110567.8914   23110564.005
        47.0004         42.0004
   -886935.13147   -682692.05346  24054652.6104   24054656.0014   24054652.429
        45.0004         40.0004
 -20531447.00749 -15980253.06948  21045926.2374   21045931.4664   21045925.275
        55.0004         50.0004
  -1450689.75448  -1110279.74547  22905910.0324   22905913.4794   22905909.768
        49.0004         45.0004
  -3530306.26347  -2722051.22246  24686463.0874   24686465.1564   24686463.325
        42.0004         37.0004
  -7259158.01247  -5616179.13347  22847785.6074   22847788.3184   22847784.972
        47.0004         42.0004
 15  1  1  0  0  2.0000000  0  9G29G05G15G13G02G24G26G12G21
   4465284.78347   3488411.10846  24437969.2194   24437975.0104   24437969.730
        45.0004         41.0004
 -13026039.79348 -10146923.60248  21567775.6984   21567778.7744   21567775.219
        53.0004         49.0004
 -19238165.45948 -14956982.01148  21738491.2454   21738493.4314   21738490.562
        53.0004         49.0004
   -592263.28047   -442300.27247  23110942.1204   23110943.1324   23110940.549
        47.0004         42.0004
   -883564.59147   -680065.66046  24055293.1154   24055296.3064   24055293.768
        45.0004         40.0004
 -20533347.72449 -15981734.14648  21045564.1634   21045569.6714   21045563.544
        55.0004         50.0004
  -1449197.40848  -1109116.87847  22906193.7164   22906196.7704   22906193.760
        49.0004         45.0004
  -3532766.47647  -2723968.26846  24685994.8794   24685997.7334   24685995.276
        42.0004         37.0004
  -7261181.89947  -5617756.18947  22847401.4464   22847403.3224   22847399.877
        47.0004         42.0004
 15  1  1  0  0  3.0000000  0  9G29G05G15G13G02G24G26G12G21
   4466858.83047   3489637.63746  24438268.8944   24438275.1024   24438269.151
        45.0004         41.0004
 -13025249.21748 -10146307.56748  21567926.2814   21567929.3934   21567925.611
        53.0004         49.0004
 -19238202.81748 -14957011.12048  21738484.0364   21738486.4774   21738483.380
        53.0004         49.0004
   -590284.28947   -440758.20147  23111317.6414   23111320.3134   23111317.239
        47.0004         43.0004
   -880194.05947   -677439.27346  24055934.2284   24055938.1884   24055935.307
        45.0004         40.0004
 -20535247.94649 -15983214.83848  21045202.6824   21045208.1324   21045201.979
        55.0004         50.0004
  -1447705.16948  -1107954.09047  22906477.9954   22906481.3594   22906477.676
        49.0004         45.0004
  -3535226.92747  -2725885.50246  24685526.6484   24685529.2164   24685527.210
        42.0004         37.0004
  -7263205.28347  -5619332.85047  22847015.8494   22847018.7864   22847014.975
        47.0004         42.0004
 15  1  1  0  0  4.0000000  0  9G29G05G15G13G02G24G26G12G21
   4468432.68147   3490864.01346  24438568.6294   24438575.0114   24438568.701
        45.0004         41.0004
 -13024458.43048 -10145691.37248  21568076.4544   21568079.7224   21568076.075
        53.0004         49.0004
 -19238240.25848 -14957040.29448  21738476.6594   21738479.4264   21738476.248
        53.0004         49.0004
   -588305.56247   -439216.34247  23111693.7354   23111696.2164   23111693.799
        47.0004         43.0004
   -876823.67947   -674813.00546  24056576.4534   24056579.6104   24056576.377
        45.0004         40.0004
 -20537147.81249 -15984695.25148  21044841.0334   21044846.6184   21044840.500
        55.0004         50.0004
  -1446213.17948  -1106791.50247  22906761.4314   22906765.8354   22906761.665
        49.0004         45.0004
  -3537687.79147  -2727803.05746  24685058.4344   24685060.5664   24685059.002
        42.0004         37.0004
  -7265228.27247  -5620909.20547  22846629.3574   22846633.8094   22846630.101
        47.0004         42.0004
 15  1  1  0  0  5.0000000  0  9G29G05G15G13G02G24G26G12G21
   4470006.23447   3492090.15746  24438867.4154   24438873.9884   24438867.834
        45.0004         41.0004
 -13023667.57048 -10145075.11548  21568226.8924   21568230.0554   21568226.595
        53.0004         49.0004
 -19238277.93748 -14957069.65448  21738469.5794   21738471.9154   21738469.125
        53.0004         49.0004
   -586327.21247   -437674.77647  23112070.6144   23112073.1094   23112070.212
        47.0004         42.0004
   -873453.59447   -672186.96746  24057217.6274   24057221.7724   24057217.576
        45.0004         40.0004
 -20539047.47649 -15986175.50948  21044479.4994   21044484.9114   21044479.076
        55.0004         50.0004
  -1444721.59048  -1105629.22947  22907044.9734   22907048.7444   22907045.554
        49.0004         45.0004
  -3540149.21147  -2729721.04746  24684589.5004   24684592.0174   24684590.455
        42.0004         37.0004
  -7267251.07347  -5622485.41847  22846245.4514   22846248.7164   22846245.242
        47.0004         42.0004
 15  1  1  0  0  6.0000000  0  9G29G05G15G13G02G24G26G12G21
   4471579.24647   3493315.88046  24439166.8794   24439173.9754   24439166.958
        45.0004         41.0004
 -13022876.86548 -10144458.98348  21568377.5594   21568380.7434   21568376.991
        53.0004         49.0004
 -19238316.07948 -14957099.37648  21738462.1714   21738464.8704   21738461.851
        53.0004         49.0004
   -584349.47447   -436133.67747  23112446.1264   23112448.2354   23112446.512
        47.0004         43.0004
   -870084.06347   -669561.36346  24057858.3864   24057862.9434   24057858.776
        45.0004         40.0004
 -20540947.19549 -15987655.80948  21044118.2334   21044123.8444   21044117.578
        55.0004         50.0004
  -1443230.63948  -1104467.44647  22907329.0794   22907331.8474   22907329.188
        49.0004         45.0004
  -3542611.39547  -2731639.63146  24684121.4524   24684122.6974   24684121.964
        42.0004         37.0004
  -7269273.86647  -5624061.61747  22845859.8584   22845863.5384   22845860.366
        47.0004         42.0004
 15  1  1  0  0  7.0000000  0  9G29G05G15G13G02G24G26G12G21
   4473152.00147   3494541.40346  24439465.7754   24439473.4454   24439465.897
        45.0004         41.0004
 -13022086.02648 -10143842.74248  21568528.1614   21568531.1364   21568527.480
        53.0004         49.0004
 -19238354.38848 -14957129.22548  21738454.7464   21738458.2084   21738454.592
        53.0004         49.0004
   -582372.08547   -434592.85147  23112822.8794   23112827.0764   23112822.749
        47.0004         43.0004
   -866714.75747   -666935.93046  24058499.6544   24058503.5484   24058499.966
        45.0004         40.0004
 -20542846.64749 -15989135.89948  21043756.7994   21043761.9494   21043756.193
        55.0004         50.0004
  -1441740.00748  -1103305.91047  22907613.9484   22907617.1284   22907612.783
        49.0004         45.0004
  -3545074.04547  -2733558.57746  24683653.4124   24683653.9174   24683653.106
        42.0004         37.0004
  -7271296.38547  -5625637.60547  22845475.1914   22845478.0664   22845475.427
        47.0004         42.0004
 15  1  1  0  0  8.0000000  0  9G29G05G15G13G02G24G26G12G21
   4474724.95947   3495767.08546  24439765.4394   24439772.5764   24439765.258
        45.0004         41.0004
 -13021294.61148 -10143226.05448  21568678.6144   21568682.0144   21568678.047
        53.0004         49.0004
 -19238392.44549 -14957158.88148  21738447.9204   21738450.5744   21738447.375
        54.0004         49.0004
   -580394.59547   -433051.94647  23113199.7284   23113201.7964   23113198.932
        47.0004         42.0004
   -863345.24847   -664310.34046  24059141.1844   24059144.9914   24059141.232
        45.0004         40.0004
 -20544745.39049 -15990615.44048  21043395.2594   21043400.7774   21043394.873
        55.0004         50.0004
  -1440249.27648  -1102144.30247  22907896.2904   22907899.7114   22907896.425
        49.0004         45.0004
  -3547536.76447  -2735477.57846  24683184.6814   24683185.5694   24683184.277
        42.0004         37.0004
  -7273318.17947  -5627213.03347  22845090.4104   22845094.5014   22845090.731
        47.0004         42.0004
 15  1  1  0  0  9.0000000  0  9G29G05G15G13G02G24G26G12G21
   4476297.98847   3496992.82146  24440065.0584   24440071.8774   24440064.518
        45.0004         41.0004
 -13020502.76348 -10142609.03148  21568829.1774   21568832.9634   21568828.689
        53.0004         49.0004
 -19238430.35849 -14957188.42148  21738440.5234   21738443.1674   21738440.196
        54.0004         49.0004
   -578417.11847   -431511.05547  23113576.0294   23113578.2314   23113575.229
        47.0004         42.0004
   -859975.65247   -661684.68546  24059782.4024   24059786.3684   24059782.370
        45.0004         40.0004
 -20546643.54949 -15992094.52448  21043034.1414   21043039.4874   21043033.664
        55.0004         50.0004
  -1438758.57948  -1100982.72547  22908180.2054   22908183.6744   22908180.124
        49.0004         45.0004
  -3549999.63747  -2737396.69746  24682716.0254   24682716.2434   24682715.488
        42.0004         37.0004
  -7275339.36447  -5628787.98147  22844706.7354   22844709.0844   22844706.273
        47.0004         42.0004
 15  1  1  0  0 10.0000000  0  9G29G05G15G13G02G24G26G12G21
   4477870.50147   3498218.15446  24440364.2574   24440371.0914   24440363.741
        45.0004         41.0004
 -13019711.03248 -10141992.10048  21568980.1284   21568982.9444   21568979.317
        53.0004         49.0004
 -19238468.69649 -14957218.29648  21738433.0544   21738435.4104   21738432.936
        54.0004         49.0004
   -576440.23047   -429970.63047  23113951.0924   23113953.8404   23113951.266
        47.0004         42.0004
   -856606.57047   -659059.43146  24060422.9504   24060428.1234   24060423.600
        45.0004         40.0004
 -20548541.69349 -15993573.59848  21042673.0194   21042678.2644   21042672.483
        55.0004         50.0004
  -1437268.47348  -1099821.59947  22908464.1114   22908467.4104   22908463.729
        49.0004         45.0004
  -3552463.26547  -2739316.40646  24682247.1934   24682249.4804   24682246.628
        42.0004         37.0004
  -7277360.51047  -5630362.89847  22844321.9944   22844324.3944   22844321.673
        47.0004         42.0004
 15  1  1  0  0 11.0000000  0  9G29G05G15G13G02G24G26G12G21
   4479443.47047   3499443.84446  24440663.7124   24440670.6664   24440663.252
        45.0004         41.0004
 -13018918.46548 -10141374.51248  21569130.8844   21569134.1114   21569130.232
        53.0004         49.0004
 -19238506.51249 -14957247.76248  21738426.4304   21738429.2254   21738425.795
        54.0004         49.0004
   -574462.96047   -428429.89947  23114327.1174   23114331.2764   23114327.602
        47.0004         42.0004
   -853237.01947   -656433.80646  24061064.3244   24061068.9034   24061064.771
        45.0004         40.0004
 -20550438.85549 -15995051.90548  21042311.9204   21042317.2824   21042311.475
        55.0004         50.0004
  -1435777.99548  -1098660.18647  22908746.6264   22908750.5784   22908747.423
        49.0004         45.0004
  -3554926.66147  -2741235.93246  24681777.6254   24681779.8774   24681777.602
        42.0004         37.0004
  -7279380.68847  -5631937.06047  22843936.7074   22843939.6414   22843937.285
        47.0004         42.0004
 15  1  1  0  0 12.0000000  0  9G29G05G15G13G02G24G26G12G21
   4481016.25047   3500669.38646  24440963.2114   24440969.8304   24440962.357
        45.0004         41.0004
 -13018125.71248 -10140756.78548  21569281.4224   21569284.6824   21569281.147
        53.0004         49.0004
 -19238544.44349 -14957277.31848  21738418.7274   21738421.5644   21738418.563
        54.0004         49.0004
   -572485.98247   -426889.39247  23114703.1614   23114706.5444   23114703.819
        47.0004         42.0004
   -849867.66647   -653808.33746  24061705.8854   24061709.4114   24061705.628
        45.0004         40.0004
 -20552335.71149 -15996529.97348  21041951.0364   21041956.2794   21041950.528
        55.0004         50.0004
  -1434287.80348  -1097499.00247  22909031.0634   22909034.2904   22909031.003
        49.0004         45.0004
  -3557390.49147  -2743155.79746  24681308.3834   24681310.3004   24681308.552
        42.0004         37.0004
  -7281400.50647  -5633510.94547  22843553.7224   22843555.9194   22843552.983
        47.0004         42.0004
 15  1  1  0  0 13.0000000  0  9G29G05G15G13G02G24G26G12G21
   4482588.78347   3501894.73746  24441262.7124   24441269.2034   24441261.575
        45.0004         41.0004
 -13017332.81448 -10140138.94248  21569432.3994   21569435.4404   21569432.080
        53.0004         49.0004
 -19238582.53449 -14957307.00048  21738411.3744   21738414.3294   21738411.277
        54.0004         49.0004
   -570509.32447   -425349.13147  23115081.0034   23115083.4664   23115080.034
        47.0004         43.0004
   -846498.53347   -651183.04246  24062347.0524   24062350.8514   24062346.836
        45.0004         40.0004
 -20554232.28949 -15998007.82648  21041590.2214   21041595.2934   21041589.635
        55.0004         50.0004
  -1432797.92348  -1096338.05747  22909314.4864   22909318.1814   22909314.553
        49.0004         45.0004
  -3559854.78147  -2745076.01946  24680839.7144   24680841.1124   24680839.498
        42.0004         37.0004
  -7283420.06347  -5635084.62547  22843168.2914   22843171.9224   22843168.710
        47.0004         42.0004
 15  1  1  0  0 14.0000000  0  9G29G05G15G13G02G24G26G12G21
   4484161.22547   3503120.01546  24441561.6754   24441568.1304   24441560.840
        45.0004         41.0004
 -13016539.62148 -10139520.86948  21569583.0974   21569586.6404   21569583.044
        53.0004         49.0004
 -19238620.63149 -14957336.68248  21738404.2574   21738406.8714   21738404.004
        54.0004         49.0004
   -568532.83247   -423809.01447  23115457.7954   23115460.2034   23115456.182
        47.0004         43.0004
   -843129.46047   -648557.79146  24062988.1934   24062991.3314   24062987.783
        45.0004         40.0004
 -20556128.44249 -15999485.34548  21041229.4084   21041234.5544   21041228.867
        55.0004         50.0004
  -1431308.22348  -1095177.24947  22909598.4194   22909602.1374   22909597.955
        49.0004         45.0004
  -3562319.40347  -2746996.50046  24680371.3334   24680372.5144   24680370.352
        42.0004         37.0004
  -7285439.16647  -5636657.94947  22842783.3174   22842787.2404   22842784.577
        47.0004         42.0004
 15  1  1  0  0 15.0000000  0  9G29G05G15G13G02G24G26G12G21
   4485734.30747   3504345.79546  24441860.9354   24441867.4174   24441860.317
        45.0004         41.0004
 -13015745.44148 -10138902.02748  21569734.7584   21569738.0484   21569734.235
        53.0004         49.0004
 -19238658.04549 -14957365.83648  21738396.9784   21738400.3964   21738396.843
        54.0004         49.0004
   -566555.81147   -422268.48147  23115832.1994   23115836.2184   23115832.452
        47.0004         43.0004
   -839759.79747   -645932.07546  24063630.4534   24063632.6814   24063629.152
        45.0004         40.0004
 -20558023.49849 -16000962.01248  21040868.9444   21040873.8194   21040868.206
        55.0004         50.0004
  -1429818.01548  -1094016.04547  22909881.5504   22909885.0254   22909881.507
        49.0004         45.0004
  -3564783.63147  -2748916.67446  24679902.7204   24679905.1134   24679901.532
        42.0004         37.0004
  -7287457.09847  -5638230.36247  22842400.5384   22842403.3974   22842400.563
        47.0004         42.0004
 15  1  1  0  0 16.0000000  0  9G29G05G15G13G02G24G26G12G21
   4487307.62147   3505571.75446  24442160.2084   24442166.7284   24442159.685
        45.0004         41.0004
 -13014950.59948 -10138282.67048  21569885.7694   21569888.9064   21569885.582
        53.0004         49.0004
 -19238695.11149 -14957394.71848  21738389.9684   21738392.8174   21738389.781
        54.0004         49.0004
   -564578.58547   -420727.79047  23116208.5914   23116212.1934   23116208.730
        47.0004         43.0004
   -836389.85047   -643306.14346  24064271.0734   24064274.8104   24064270.574
        45.0004         40.0004
 -20559917.77249 -16002438.07048  21040508.5544   21040513.5514   21040507.748
        55.0004         50.0004
  -1428327.60648  -1092854.68847  22910165.7424   22910168.3974   22910165.194
        49.0004         45.0004
  -3567247.83847  -2750836.83246  24679433.4654   24679434.9444   24679432.815
        42.0004         37.0004
  -7289474.25247  -5639802.17147  22842016.4204   22842019.5954   22842016.860
        47.0004         42.0004
 15  1  1  0  0 17.0000000  0  9G29G05G15G13G02G24G26G12G21
   4488880.94947   3506797.72246  24442459.9064   24442466.3694   24442459.121
        45.0004         41.0004
 -13014155.38648 -10137663.02448  21570037.0354   21570040.5964   21570036.900
        53.0004         49.0004
 -19238732.11249 -14957423.54948  21738383.0254   21738385.9114   21738382.694
        54.0004         49.0004
   -562601.46947   -419187.18447  23116585.7054   23116587.9974   23116585.049
        47.0004         43.0004
   -833019.89647   -640680.20646  24064912.3604   24064916.8344   24064911.833
        45.0004         40.0004
 -20561811.53649 -16003913.72948  21040147.7304   21040153.1014   21040147.384
        55.0004         50.0004
  -1426837.29748  -1091693.41147  22910448.9844   22910453.1754   22910448.735
        49.0004         45.0004
  -3569712.25747  -2752757.15746  24678963.4254   24678966.5944   24678963.974
        42.0004         37.0004
  -7291490.88447  -5641373.57147  22841633.1734   22841635.5234   22841633.103
        47.0004         42.0004
 15  1  1  0  0 18.0000000  0  9G29G05G15G13G02G24G26G12G21
   4490454.33447   3508023.73646  24442759.4694   24442765.8064   24442758.555
        45.0004         41.0004
 -13013359.73648 -10137043.03848  21570188.4764   21570191.7124   21570188.333
        53.0004         49.0004
 -19238768.98149 -14957452.27748  21738375.9874   21738378.8074   21738375.708
        54.0004         49.0004
   -560624.36547   -417646.58747  23116960.9914   23116964.6314   23116961.353
        47.0004         43.0004
   -829649.89547   -638054.23446  24065553.2874   24065557.4714   24065553.109
        45.0004         40.0004
 -20563704.72449 -16005388.94148  21039787.6904   21039792.9104   21039787.133
        55.0004         50.0004
  -1425347.01848  -1090532.15147  22910732.9554   22910735.8624   22910732.354
        49.0004         45.0004
  -3572176.87047  -2754677.63346  24678493.7704   24678497.6364   24678494.996
        42.0004         37.0004
  -7293506.92747  -5642944.51147  22841248.8834   22841252.5664   22841249.359
        47.0004         42.0004
 15  1  1  0  0 19.0000000  0  9G29G05G15G13G02G24G26G12G21
   4492027.54347   3509249.61346  24443058.9574   24443065.0494   24443058.163
        45.0004         41.0004
 -13012563.87148 -10136422.88548  21570339.9694   21570343.1334   21570339.822
        53.0004         49.0004
 -19238805.94549 -14957481.08248  21738369.3404   21738372.0174   21738368.678
        54.0004         49.0004
   -558647.55447   -416106.20547  23117337.1394   23117341.0544   23117337.471
        47.0004         43.0004
   -826280.03647   -635428.37046  24066193.8354   24066198.3474   24066194.225
        45.0004         40.0004
 -20565597.55649 -16006863.87548  21039427.9194   21039432.6004   21039427.007
        55.0004         50.0004
  -1423856.99448  -1089371.09447  22911015.8504   22911020.0624   22911015.943
        49.0004         45.0004
  -3574641.90147  -2756598.43246  24678024.9864   24678027.8344   24678025.961
        42.0004         37.0004
  -7295522.59847  -5644515.16447  22840865.8644   22840868.9854   22840865.932
        47.0004         42.0004
 15  1  1  0  0 20.0000000  0  9G29G05G15G13G02G24G26G12G21
   4493600.74747   3510475.48646  24443358.3144   24443364.7464   24443357.788
        45.0004         41.0004
 -13011767.61848 -10135802.42848  21570491.4144   21570494.5924   21570491.302
        53.0004         49.0004
 -19238842.85249 -14957509.83948  21738361.8624   21738364.9194   21738361.649
        54.0004         49.0004
   -556670.79647   -414565.87047  23117713.5254   23117716.3514   23117713.544
        47.0004         43.0004
   -822910.18747   -632802.51746  24066834.9234   24066838.9344   24066835.491
        45.0004         40.0004
 -20567489.88249 -16008338.41348  21039067.4234   21039072.4364   21039066.870
        55.0004         50.0004
  -1422367.06148  -1088210.11047  22911299.4474   22911302.9094   22911299.451
        49.0004         45.0004
  -3577107.15947  -2758519.41046  24677556.0404   24677559.4794   24677556.906
        42.0004         37.0004
  -7297537.73247  -5646085.40147  22840481.6304   22840484.6954   22840482.337
        47.0004         42.0004
 15  1  1  0  0 21.0000000  0  9G29G05G15G13G02G24G26G12G21
   4495174.09947   3511701.47346  24443657.8124   24443663.6154   24443657.285
        45.0004         41.0004
 -13010970.83048 -10135181.55548  21570643.0384   21570646.2454   21570642.937
        53.0004         49.0004
 -19238879.51649 -14957538.40848  21738354.8534   21738357.8754   21738354.637
        54.0004         49.0004
   -554693.97947   -413025.49547  23118090.4504   23118094.3214   23118089.778
        47.0004         42.0004
   -819540.16247   -630176.52546  24067476.3784   24067479.8494   24067476.565
        45.0004         40.0004
 -20569381.54549 -16009812.43548  21038707.5484   21038712.5304   21038706.860
        55.0004         50.0004
  -1420877.07148  -1087049.07847  22911583.2414   22911586.9624   22911582.994
        49.0004         45.0004
  -3579572.48247  -2760440.43846  24677086.6804   24677090.6004   24677087.736
        42.0004         37.0004
  -7299552.19347  -5647655.10847  22840099.2644   22840101.1484   22840098.995
        47.0004         42.0004
 15  1  1  0  0 22.0000000  0  9G29G05G15G13G02G24G26G12G21
   4496747.40647   3512927.42746  24443957.6344   24443962.8054   24443956.942
        45.0004         41.0004
 -13010173.70848 -10134560.41948  21570795.0084   21570798.0264   21570794.594
        53.0004         49.0004
 -19238916.16349 -14957566.96248  21738348.2234   21738350.7474   21738347.599
        54.0004         49.0004
   -552717.29047   -411485.21747  23118466.5134   23118470.4914   23118465.930
        47.0004         42.0004
   -816170.19347   -627550.57546  24068118.0354   24068121.7974   24068117.934
        45.0004         40.0004
 -20571272.73249 -16011286.08448  21038347.5934   21038352.4314   21038346.961
        55.0004         50.0004
  -1419387.21948  -1085888.15247  22911866.5504   22911870.0234   22911866.495
        49.0004         45.0004
  -3582038.11547  -2762361.70646  24676617.1844   24676620.5114   24676618.426
        42.0004         37.0004
  -7301566.15747  -5649224.42847  22839716.0064   22839717.9304   22839715.752
        47.0004         42.0004
 15  1  1  0  0 23.0000000  0  9G29G05G15G13G02G24G26G12G21
   4498321.07347   3514153.66046  24444257.0994   24444262.4984   24444256.596
        45.0004         41.0004
 -13009375.85248 -10133938.71348  21570946.7714   21570950.1054   21570946.468
        53.0004         49.0004
 -19238952.37149 -14957595.17548  21738341.3374   21738343.9914   21738340.786
        54.0004         49.0004
   -550740.32847   -409944.72747  23118841.8544   23118844.2754   23118842.156
        47.0004         43.0004
   -812799.85347   -624924.33646  24068759.7484   24068763.0264   24068759.243
        45.0004         40.0004
 -20573163.04549 -16012759.05548  21037987.9864   21037992.8174   21037987.302
        55.0004         50.0004
  -1417897.08748  -1084727.01047  22912150.2304   22912153.9074   22912150.063
        49.0004         45.0004
  -3584503.60647  -2764282.86546  24676147.8114   24676152.2714   24676149.240
        42.0004         37.0004
  -7303579.24247  -5650793.06247  22839332.7174   22839335.3554   22839332.720
        47.0004         42.0004
 15  1  1  0  0 24.0000000  0  9G29G05G15G13G02G24G26G12G21
   4499895.14947   3515380.21246  24444556.4094   24444561.7304   24444556.226
        45.0004         41.0004
 -13008577.20048 -10133316.38748  21571098.6394   21571101.8744   21571098.400
        53.0004         49.0004
 -19238988.09749 -14957623.01348  21738334.3274   21738337.2354   21738334.054
        54.0004         49.0004
   -548763.04947   -408403.99147  23119218.3134   23119223.0254   23119218.436
        47.0004         42.0004
   -809429.08547   -622297.76446  24069400.9394   24069404.9344   24069400.609
        45.0004         40.0004
 -20575052.45549 -16014231.32348  21037628.2794   21037633.3434   21037627.731
        55.0004         50.0004
  -1416406.63248  -1083565.61747  22912433.6354   22912437.2894   22912433.705
        49.0004         45.0004
  -3586968.92247  -2766203.88946  24675679.6764   24675684.3304   24675680.324
        42.0004         37.0004
  -7305591.38147  -5652360.96047  22838950.2174   22838952.5714   22838950.001
        47.0004         42.0004
 15  1  1  0  0 25.0000000  0  9G29G05G15G13G02G24G26G12G21
   4501469.16647   3516606.71846  24444856.2584   24444861.5144   24444856.096
        45.0004         41.0004
 -13007778.21148 -10132693.80048  21571250.7524   21571253.7364   21571250.473
        53.0004         49.0004
 -19239023.80849 -14957650.84148  21738327.4694   21738330.1764   21738327.298
        54.0004         49.0004
   -546785.92447   -406863.38047  23119595.3154   23119596.9424   23119594.871
        47.0004         43.0004
   -806058.38347   -619671.24246  24070042.2754   24070047.3504   24070041.977
        45.0004         40.0004
 -20576941.39649 -16015703.22748  21037268.9374   21037273.8924   21037268.281
        55.0004         50.0004
  -1414916.32148  -1082404.33747  22912717.2034   22912721.5664   22912717.314
        49.0004         45.0004
  -3589434.52147  -2768125.13346  24675210.5724   24675214.4754   24675211.311
        42.0004         37.0004
  -7307603.03947  -5653928.48747  22838566.2584   22838569.8014   22838567.235
        47.0004         42.0004
 15  1  1  0  0 26.0000000  0  9G29G05G15G13G02G24G26G12G21
   4503042.99747   3517833.07746  24445155.3384   24445160.7324   24445155.686
        45.0004         41.0004
 -13006979.04548 -10132071.07448  21571402.2944   21571406.1014   21571402.495
        53.0004         49.0004
 -19239059.63149 -14957678.75648  21738320.6114   21738323.4854   21738320.448
        54.0004         49.0004
   -544809.07647   -405322.98047  23119971.0674   23119974.5454   23119971.083
        47.0004         43.0004
   -802687.85347   -617044.85746  24070684.0624   24070688.3494   24070683.378
        45.0004         40.0004
 -20578830.01349 -16017174.87548  21036909.5854   21036914.6794   21036908.936
        55.0004         50.0004
  -1413426.29848  -1081243.28047  22913000.0964   22913004.1124   22913000.728
        49.0004         45.0004
  -3591900.54147  -2770046.70546  24674741.9284   24674745.2434   24674742.041
        42.0004         37.0004
  -7309614.34747  -5655495.73547  22838183.4784   22838187.2794   22838184.428
        47.0004         42.0004
 15  1  1  0  0 27.0000000  0  9G29G05G15G13G02G24G26G12G21
   4504616.56647   3519059.23346  24445454.9664   24445460.3124   24445455.172
        45.0004         40.0004
 -13006179.73748 -10131448.23648  21571554.8484   21571557.8654   21571554.601
        53.0004         49.0004
 -19239095.63349 -14957706.80948  21738313.5634   21738316.6404   21738313.597
        54.0004         49.0004
   -542832.55247   -403782.83147  23120347.0384   23120350.6084   23120347.201
        47.0004         43.0004
   -799317.57647   -614418.67046  24071325.8324   24071329.6534   24071324.520
        45.0004         40.0004
 -20580718.37949 -16018646.32548  21036550.1254   21036555.0014   21036549.604
        55.0004         50.0004
  -1411936.61548  -1080082.48647  22913283.6664   22913288.0424   22913284.206
        49.0004         45.0004
  -3594367.03847  -2771968.64646  24674271.2684   24674275.2364   24674272.528
        42.0004         37.0004
  -7311625.37647  -5657062.77247  22837801.4624   22837803.2344   22837801.721
        47.0004         42.0004
 15  1  1  0  0 28.0000000  0  9G29G05G15G13G02G24G26G12G21
   4506190.00447   3520285.28646  24445755.1734   24445760.0744   24445754.852
        45.0004         41.0004
 -13005380.19348 -10130825.21448  21571706.9514   21571710.2054   21571706.773
        53.0004         49.0004
 -19239131.70049 -14957734.90948  21738307.1504   21738309.7734   21738306.791
        54.0004         49.0004
   -540856.27547   -402242.87847  23120723.0964   23120725.3454   23120723.324
        47.0004         42.0004
   -795947.43147   -611792.58346  24071966.9994   24071971.3264   24071965.965
        45.0004         40.0004
 -20582606.39449 -16020117.50548  21036190.9544   21036196.3584   21036190.371
        55.0004         50.0004
  -1410447.16948  -1078921.88047  22913568.4244   22913570.3564   22913567.563
        49.0004         45.0004
  -3596833.91247  -2773890.88446  24673802.1614   24673805.1734   24673803.129
        42.0004         37.0004
  -7313636.00347  -5658629.49447  22837418.5654   22837420.9814   22837419.033
        47.0004         42.0004
 15  1  1  0  0 29.0000000  0  9G29G05G15G13G02G24G26G12G21
   4507763.33047   3521511.25346  24446054.5594   24446059.6214   24446054.266
        45.0004         41.0004
 -13004580.36848 -10130201.97448  21571859.2184   21571862.4874   21571858.953
        53.0004         49.0004
 -19239167.78049 -14957763.02548  21738300.0154   21738303.0044   21738299.878
        54.0004         49.0004
   -538880.12947   -400703.02047  23121100.0404   23121103.5374   23121099.390
        47.0004         42.0004
   -792577.36347   -609166.55846  24072607.7154   24072612.2894   24072607.067
        45.0004         40.0004
 -20584493.98249 -16021588.35448  21035831.7174   21035836.5794   21035831.159
        55.0004         50.0004
  -1408957.87648  -1077761.39547  22913850.0244   22913854.5084   22913850.900
        49.0004         45.0004
  -3599301.12647  -2775813.38446  24673332.0234   24673335.3214   24673333.555
        42.0004         37.0004
  -7315646.19947  -5660195.88047  22837035.6554   22837038.4514   22837036.351
        47.0004         42.0004
 15  1  1  0  0 30.0000000  0  9G29G05G15G13G02G24G26G12G21
   4509335.85947   3522736.59646  24446353.9054   24446358.8334   24446353.656
        45.0004         41.0004
 -13003780.95948 -10129579.05948  21572011.0434   21572014.1164   21572011.112
        53.0004         49.0004
 -19239204.59849 -14957791.71348  21738293.2884   21738295.7944   21738292.808
        54.0004         49.0004
   -536904.90947   -399163.87547  23121474.7464   23121477.2834   23121475.336
        47.0004         42.0004
   -789208.10747   -606541.16846  24073248.6284   24073252.4654   24073248.422
        45.0004         40.0004
 -20586381.85349 -16023059.42248  21035472.2844   21035477.4794   21035471.870
        55.0004         50.0004
  -1407469.49648  -1076601.61347  22914134.4244   22914137.5794   22914133.988
        49.0004         45.0004
  -3601769.34847  -2777736.67246  24672862.9954   24672866.3084   24672863.997
        42.0004         37.0004
  -7317656.66047  -5661762.47347  22836654.2234   22836656.2354   22836653.704
        47.0004         42.0004
 15  1  1  0  0 31.0000000  0  9G29G05G15G13G02G24G26G12G21
   4510908.74547   3523962.22046  24446653.1004   24446657.6994   24446652.960
        45.0004         41.0004
 -13002980.81248 -10128955.56748  21572163.7174   21572166.9124   21572163.351
        53.0004         49.0004
 -19239240.97749 -14957820.06148  21738286.3764   21738289.4014   21738285.916
        54.0004         49.0004
   -534929.40247   -397624.52747  23121850.6684   23121854.2374   23121851.307
        47.0004         43.0004
   -785838.47747   -603915.48146  24073889.3584   24073894.0404   24073889.837
        45.0004         40.0004
 -20588268.83849 -16024529.80048  21035113.3094   21035118.2864   21035112.780
        55.0004         50.0004
  -1405980.84248  -1075441.62547  22914417.4094   22914421.6554   22914417.134
        49.0004         45.0004
  -3604237.45747  -2779659.87246  24672395.3594   24672397.2454   24672394.563
        42.0004         37.0004
  -7319666.22347  -5663328.36747  22836271.2034   22836273.9314   22836271.309
        47.0004         42.0004
 15  1  1  0  0 32.0000000  0  9G29G05G15G13G02G24G26G12G21
   4512481.59647   3525187.81546  24446952.0974   24446956.7694   24446952.145
        45.0004         41.0004
 -13002180.30748 -10128331.79748  21572316.1844   21572319.1904   21572315.634
        53.0004         49.0004
 -19239277.31649 -14957848.37548  21738279.3124   21738282.2614   21738279.035
        54.0004         49.0004
   -532954.01147   -396085.26747  23122227.4584   23122229.7534   23122227.163
        47.0004         43.0004
   -782468.87047   -601289.81446  24074530.9834   24074535.1604   24074531.052
        45.0004         40.0004
 -20590155.34049 -16025999.79848  21034754.5804   21034759.3414   21034753.755
        55.0004         50.0004
  -1404492.29248  -1074281.71547  22914701.0064   22914703.7164   22914700.269
        49.0004         45.0004
  -3606705.82547  -2781583.27446  24671925.1474   24671927.6964   24671924.779
        42.0004         37.0004
  -7321675.27447  -5664893.86447  22835888.8174   22835891.4394   22835888.935
        47.0004         42.0004
 15  1  1  0  0 33.0000000  0  9G29G05G15G13G02G24G26G12G21
   4514054.34747   3526413.33246  24447251.8454   24447255.7834   24447251.484
        45.0004         41.0004
 -13001379.52248 -10127707.81048  21572468.1864   21572471.4094   21572467.949
        53.0004         49.0004
 -19239313.67749 -14957876.70948  21738272.4164   21738275.4424   21738272.144
        54.0004         49.0004
   -530978.79447   -394546.13347  23122602.4284   23122605.8504   23122602.873
        47.0004         43.0004
   -779099.36547   -598664.22746  24075172.5444   24075176.7054   24075172.305
        45.0004         40.0004
 -20592041.45049 -16027469.49548  21034395.4434   21034400.4854   21034394.863
        55.0004         50.0004
  -1403003.93548  -1073121.95247  22914983.7244   22914987.2404   22914983.486
        49.0004         45.0004
  -3609174.53947  -2783506.94346  24671454.8374   24671457.0014   24671454.834
        42.0004         37.0004
  -7323683.90947  -5666459.03547  22835506.7234   22835509.5314   22835506.768
        47.0004         42.0004
 15  1  1  0  0 34.0000000  0  9G29G05G15G13G02G24G26G12G21
   4515626.67747   3527638.52146  24447550.9794   24447554.7534   24447550.762
        45.0004         41.0004
 -13000578.77848 -10127083.85148  21572620.7384   21572623.7144   21572620.228
        53.0004         49.0004
 -19239350.39649 -14957905.32148  21738265.3084   21738268.3794   21738265.097
        54.0004         49.0004
   -529004.09647   -393007.40547  23122978.5044   23122981.4154   23122978.458
        47.0004         43.0004
   -775730.27847   -596038.96746  24075813.5624   24075818.1974   24075813.294
        45.0004         40.0004
 -20593927.45949 -16028939.10948  21034036.6784   21034041.5754   21034035.935
        55.0004         50.0004
  -1401516.10448  -1071962.60247  22915268.1524   22915270.4804   22915266.511
        49.0004         45.0004
  -3611643.91147  -2785431.12846  24670984.9554   24670985.8244   24670984.617
        42.0004         37.0004
  -7325692.42847  -5668024.11247  22835124.2884   22835127.7904   22835124.478
        47.0004         42.0004
 15  1  1  0  0 35.0000000  0  9G29G05G15G13G02G24G26G12G21
   4517199.11347   3528863.79446  24447849.9364   24447853.9484   24447849.789
        45.0004         40.0004
 -12999777.52248 -10126459.49748  21572773.2244   21572776.4934   21572772.617
        53.0004         49.0004
 -19239386.90949 -14957933.77148  21738258.4484   21738261.1794   21738258.145
        54.0004         49.0004
   -527029.34047   -391468.63647  23123355.1274   23123357.3644   23123354.213
        47.0004         43.0004
   -772361.04147   -593413.59246  24076454.6304   24076459.5654   24076454.786
        45.0004         40.0004
 -20595812.83949 -16030408.23648  21033677.7504   21033682.8894   21033677.217
        55.0004         50.0004
  -1400028.22248  -1070803.21647  22915549.7934   22915553.2524   22915549.624
        49.0004         45.0004
  -3614113.36747  -2787355.37946  24670515.2274   24670516.5304   24670514.677
        42.0004         37.0004
  -7327700.31247  -5669588.68947  22834741.2884   22834745.6694   22834742.415
        47.0004         42.0004
 15  1  1  0  0 36.0000000  0  9G29G05G15G13G02G24G26G12G21
   4518772.07247   3530089.47446  24448148.9614   24448153.5434   24448149.005
        45.0004         41.0004
 -12998975.37948 -10125834.45148  21572926.0444   21572928.9294   21572925.215
        53.0004         49.0004
 -19239422.84049 -14957961.76948  21738251.6514   21738254.3994   21738251.270
        54.0004         49.0004
   -525054.17947   -389929.56147  23123730.0414   23123733.9474   23123730.122
        47.0004         43.0004
   -768991.30347   -590787.82546  24077096.0584   24077100.3934   24077095.918
        45.0004         40.0004
 -20597697.20349 -16031876.57048  21033319.2464   21033324.1864   21033318.646
        55.0004         50.0004
  -1398539.91748  -1069643.50147  22915832.5454   22915836.9564   22915832.881
        49.0004         45.0004
  -3616582.56547  -2789279.42646  24670044.3604   24670046.4854   24670044.574
        42.0004         37.0004
  -7329707.10247  -5671152.42047  22834360.8214   22834363.4094   22834360.754
        47.0004         42.0004
 15  1  1  0  0 37.0000000  0  9G29G05G15G13G02G24G26G12G21
   4520344.80947   3531314.98146  24448448.3934   24448453.5744   24448448.164
        45.0004         41.0004
 -12998173.04748 -10125209.25548  21573078.3964   21573081.7744   21573077.911
        53.0004         49.0004
 -19239458.90249 -14957989.87048  21738244.9414   21738247.6294   21738244.408
        54.0004         49.0004
   -523079.30747   -388390.69047  23124106.2894   23124107.7464   23124105.975
        47.0004         43.0004
   -765621.73947   -588162.19346  24077737.3164   24077741.2554   24077737.231
        45.0004         40.0004
 -20599581.24949 -16033344.65848  21032960.6364   21032965.7524   21032960.147
        55.0004         50.0004
  -1397051.89948  -1068484.00247  22916117.1584   22916119.9984   22916116.072
        49.0004         44.0004
  -3619052.19547  -2791203.81046  24669574.7704   24669576.0594   24669574.723
        42.0004         37.0004
  -7331713.58447  -5672715.91647  22833979.0264   22833981.6884   22833978.911
        47.0004         42.0004
 15  1  1  0  0 38.0000000  0  9G29G05G15G13G02G24G26G12G21
   4521917.75847   3532540.65346  24448747.4884   24448753.1304   24448747.537
        45.0004         41.0004
 -12997370.14248 -10124583.61448  21573231.2144   21573234.4354   21573230.688
        53.0004         49.0004
 -19239494.69949 -14958017.76248  21738237.9924   21738241.0614   21738237.551
        54.0004         49.0004
   -521104.30147   -386851.72447  23124481.4934   23124484.3324   23124481.689
        47.0004         43.0004
   -762251.99947   -585536.42546  24078378.8224   24078382.4014   24078378.717
        45.0004         40.0004
 -20601464.59549 -16034812.19848  21032602.1034   21032607.2984   21032601.752
        55.0004         50.0004
  -1395563.79348  -1067324.43747  22916398.9064   22916402.7884   22916399.174
        49.0004         44.0004
  -3621521.85447  -2793128.21646  24669104.3634   24669106.1254   24669104.716
        42.0004         37.0004
  -7333719.32947  -5674278.83347  22833596.4094   22833599.3954   22833597.005
        47.0004         42.0004
 15  1  1  0  0 39.0000000  0  9G29G05G15G13G02G24G26G12G21
   4523490.40647   3533766.09046  24449046.4054   24449052.5034   24449046.711
        45.0004         41.0004
 -12996567.13048 -10123957.89148  21573384.4734   21573387.2494   21573383.462
        53.0004         49.0004
 -19239530.69149 -14958045.80748  21738231.1834   21738233.9134   21738230.695
        54.0004         49.0004
   -519129.64947   -385313.03547  23124857.1414   23124859.6194   23124857.398
        47.0004         43.0004
   -758882.51147   -582910.85046  24079019.9434   24079023.7414   24079020.045
        45.0004         40.0004
 -20603347.71549 -16036279.56648  21032243.9934   21032248.9484   21032243.442
        55.0004         50.0004
  -1394076.05648  -1066165.16147  22916683.0404   22916686.5574   22916682.291
        49.0004         45.0004
  -3623992.03847  -2795053.03146  24668634.3354   24668636.1524   24668634.516
        42.0004         37.0004
  -7335724.84947  -5675841.57347  22833214.4124   22833216.6894   22833215.314
        47.0004         42.0004
 15  1  1  0  0 40.0000000  0  9G29G05G15G13G02G24G26G12G21
   4525063.18547   3534991.63046  24449345.5874   24449351.6844   24449345.835
        45.0004         41.0004
 -12995763.60448 -10123331.76748  21573537.0874   21573540.2374   21573536.322
        53.0004         49.0004
 -19239566.49349 -14958073.70348  21738224.4024   21738226.9914   21738223.836
        54.0004         49.0004
   -517154.98347   -383774.33747  23125233.0274   23125236.8404   23125233.192
        47.0004         42.0004
   -755512.89947   -580285.17946  24079660.9884   24079664.5614   24079661.242
        45.0004         40.0004
 -20605230.16649 -16037746.40848  21031885.5664   21031890.6654   21031885.211
        55.0004         50.0004
  -1392588.26948  -1065005.84147  22916965.3964   22916968.8974   22916965.381
        49.0004         45.0004
  -3626462.31547  -2796977.92046  24668165.4614   24668166.5984   24668164.395
        42.0004         37.0004
  -7337729.65647  -5677403.76247  22832832.6274   22832836.8784   22832833.678
        47.0004         42.0004
 15  1  1  0  0 41.0000000  0  9G29G05G15G13G02G24G26G12G21
   4526636.37847   3536217.49446  24449645.2374   24449650.8884   24449645.005
        45.0004         41.0004
 -12994959.28948 -10122705.02748  21573690.0624   21573693.1054   21573689.385
        53.0004         49.0004
 -19239601.80549 -14958101.21948  21738217.4824   21738220.4014   21738217.069
        54.0004         49.0004
   -515179.98647   -382235.37347  23125609.7364   23125612.5434   23125608.989
        47.0004         43.0004
   -752142.86347   -577659.18046  24080302.3274   24080306.3014   24080302.634
        45.0004         40.0004
 -20607111.68549 -16039212.52448  21031527.4454   21031532.7874   21031527.154
        55.0004         50.0004
  -1391100.15348  -1063846.26947  22917249.0304   22917252.3124   22917248.477
        49.0004         45.0004
  -3628932.39647  -2798902.65646  24667695.7224   24667697.6994   24667694.352
        42.0004         37.0004
  -7339733.54847  -5678965.23847  22832452.5834   22832454.9844   22832452.292
        47.0004         42.0004
 15  1  1  0  0 42.0000000  0  9G29G05G15G13G02G24G26G12G21
   4528209.99447   3537443.68746  24449944.4124   24449950.6294   24449944.248
        45.0004         40.0004
 -12994154.16048 -10122077.65348  21573843.4804   21573846.5314   21573842.535
        53.0004         49.0004
 -19239636.59849 -14958128.32948  21738211.1014   21738213.7774   21738210.452
        54.0004         49.0004
   -513204.61247   -380696.12747  23125984.8094   23125987.7974   23125984.721
        47.0004         42.0004
   -748772.39847   -575032.84546  24080943.7814   24080946.7794   24080943.823
        45.0004         40.0004
 -20608992.24349 -16040677.89548  21031169.7874   21031174.7054   21031169.272
        55.0004         50.0004
  -1389611.69248  -1062686.43047  22917531.5704   22917535.2594   22917531.736
        49.0004         45.0004
  -3631402.30747  -2800827.25646  24667224.7494   24667227.3914   24667224.074
        42.0004         37.0004
  -7341736.46047  -5680525.94847  22832070.4224   22832074.3594   22832071.127
        47.0004         42.0004
 15  1  1  0  0 43.0000000  0  9G29G05G15G13G02G24G26G12G21
   4529783.40047   3538669.71746  24450243.3384   24450249.6214   24450243.268
        45.0004         40.0004
 -12993348.85548 -10121450.14648  21573996.3234   21573999.7314   21573995.780
        53.0004         49.0004
 -19239671.51949 -14958155.54148  21738204.6644   21738207.2454   21738203.758
        54.0004         49.0004
   -511229.56047   -379157.12047  23126361.2164   23126364.1524   23126360.506
        47.0004         43.0004
   -745402.13447   -572406.66546  24081584.9164   24081588.3714   24081585.357
        45.0004         40.0004
 -20610872.48949 -16042143.02148  21030811.9194   21030816.8934   21030811.477
        55.0004         50.0004
  -1388123.53148  -1061526.82747  22917815.1734   22917818.5064   22917814.907
        49.0004         45.0004
  -3633872.63247  -2802752.18246  24666755.0824   24666757.4134   24666753.935
        42.0004         37.0004
  -7343739.06647  -5682086.41747  22831690.4724   22831693.0794   22831690.180
        47.0004         42.0004
 15  1  1  0  0 44.0000000  0  9G29G05G15G13G02G24G26G12G21
   4531356.25747   3539895.31646  24450542.3514   24450548.9884   24450542.387
        45.0004         40.0004
 -12992543.69548 -10120822.74948  21574150.1764   21574152.5754   21574148.976
        53.0004         49.0004
 -19239706.92249 -14958183.12948  21738197.3144   21738200.0084   21738197.023
        54.0004         49.0004
   -509255.12147   -377618.60747  23126736.5314   23126739.7654   23126736.226
        47.0004         42.0004
   -742032.39047   -569780.89446  24082225.7424   24082230.3664   24082226.621
        45.0004         40.0004
 -20612752.76949 -16043608.17648  21030454.1704   21030459.3804   21030453.624
        55.0004         50.0004
  -1386636.00048  -1060367.71347  22918098.5664   22918102.1464   22918098.120
        49.0004         45.0004
  -3636343.73847  -2804677.71846  24666284.3174   24666287.0104   24666283.601
        42.0004         37.0004
  -7345741.66147  -5683646.88247  22831308.3124   22831312.0044   22831309.086
        47.0004         42.0004
 15  1  1  0  0 45.0000000  0  9G29G05G15G13G02G24G26G12G21
   4532928.47347   3541120.41646  24450841.2074   24450848.4154   24450841.397
        45.0004         40.0004
 -12991738.79548 -10120195.55448  21574302.8534   21574305.9824   21574302.179
        53.0004         49.0004
 -19239742.87749 -14958211.14448  21738191.0054   21738193.4564   21738190.249
        54.0004         49.0004
   -507281.39347   -376080.63647  23127112.9374   23127114.1234   23127111.660
        47.0004         43.0004
   -738663.28847   -567155.62346  24082866.7974   24082871.8864   24082868.088
        45.0004         40.0004
 -20614633.17349 -16045073.42348  21030096.3144   21030101.4744   21030095.837
        55.0004         50.0004
  -1385149.20448  -1059209.17247  22918381.1474   22918384.6604   22918381.050
        49.0004         45.0004
  -3638815.69747  -2806603.92046  24665813.8044   24665816.7174   24665813.324
        42.0004         37.0004
  -7347744.36447  -5685207.42647  22830927.7594   22830929.7894   22830928.049
        47.0004         42.0004
 15  1  1  0  0 46.0000000  0  9G29G05G15G13G02G24G26G12G21
   4534500.75247   3542345.56746  24451140.0494   24451148.0364   24451140.475
        45.0004         40.0004
 -12990933.45048 -10119568.01148  21574456.4234   21574459.2824   21574455.485
        53.0004         49.0004
 -19239778.69949 -14958239.05648  21738184.0774   21738186.6034   21738183.501
        54.0004         49.0004
   -505307.69447   -374542.68547  23127486.8484   23127491.3324   23127487.220
        47.0004         43.0004
   -735294.12147   -564530.29946  24083508.2044   24083512.8444   24083509.370
        45.0004         40.0004
 -20616512.98149 -16046538.20448  21029738.6734   21029743.8584   21029738.096
        55.0004         50.0004
  -1383662.42448  -1058050.63347  22918664.5294   22918667.9274   22918664.045
        49.0004         45.0004
  -3641287.83347  -2808530.25846  24665343.1534   24665346.5554   24665342.918
        42.0004         37.0004
  -7349746.45547  -5686767.49447  22830548.0324   22830548.8464   22830547.066
        47.0004         42.0004
 15  1  1  0  0 47.0000000  0  9G29G05G15G13G02G24G26G12G21
   4536073.20747   3543570.85646  24451438.8714   24451447.1894   24451439.459
        45.0004         40.0004
 -12990127.53048 -10118940.02048  21574609.4844   21574612.4914   21574608.801
        53.0004         49.0004
 -19239814.27049 -14958266.77248  21738177.1084   21738179.7304   21738176.740
        54.0004         49.0004
   -503333.90947   -373004.67147  23127863.5634   23127865.3304   23127862.934
        47.0004         43.0004
   -731924.76747   -561904.83046  24084149.8754   24084154.1564   24084150.707
        45.0004         40.0004
 -20618392.10849 -16048002.45748  21029380.8834   21029385.9894   21029380.457
        55.0004         50.0004
  -1382175.54948  -1056892.03147  22918947.4214   22918950.3104   22918947.167
        49.0004         44.0004
  -3643760.03647  -2810456.64846  24664872.9834   24664877.1424   24664872.497
        42.0004         37.0004
  -7351747.84047  -5688327.01247  22830165.0874   22830168.1184   22830166.360
        47.0004         42.0004
 15  1  1  0  0 48.0000000  0  9G29G05G15G13G02G24G26G12G21
   4537645.77447   3544796.23146  24451737.8334   24451746.3134   24451738.514
        45.0004         40.0004
 -12989321.09748 -10118311.63248  21574763.0744   21574766.2714   21574762.280
        53.0004         49.0004
 -19239849.62449 -14958294.32248  21738170.3504   21738173.1794   21738169.896
        54.0004         49.0004
   -501360.06847   -371466.61147  23128239.1784   23128240.7974   23128238.465
        47.0004         42.0004
   -728555.26247   -559279.24246  24084790.5164   24084794.9854   24084791.881
        45.0004         40.0004
 -20620270.59449 -16049466.21448  21029023.3944   21029028.6254   21029023.020
        55.0004         50.0004
  -1380688.62948  -1055733.40147  22919230.7684   22919232.5024   22919230.264
        49.0004         45.0004
  -3646232.31247  -2812383.09546  24664402.4444   24664406.9694   24664402.172
        42.0004         37.0004
  -7353748.55347  -5689886.00647  22829784.6364   22829787.2984   22829785.587
        47.0004         42.0004
 15  1  1  0  0 49.0000000  0  9G29G05G15G13G02G24G26G12G21
   4539218.65447   3546021.85446  24452037.4454   24452045.3704   24452037.518
        45.0004         40.0004
 -12988513.96248 -10117682.69448  21574916.5554   21574919.7384   21574915.896
        53.0004         49.0004
 -19239884.59549 -14958321.56848  21738163.9184   21738166.4654   21738163.214
        54.0004         49.0004
   -499385.98047   -369928.35547  23128613.1934   23128618.7454   23128614.095
        47.0004         43.0004
   -725185.45347   -556653.41546  24085431.5154   24085435.5464   24085433.178
        45.0004         40.0004
 -20622148.24649 -16050929.31748  21028666.4124   21028671.4364   21028665.735
        55.0004         50.0004
  -1379201.47948  -1054574.57847  22919513.9214   22919516.7514   22919513.354
        49.0004         44.0004
  -3648704.51047  -2814309.48046  24663932.5644   24663936.3924   24663931.614
        42.0004         37.0004
  -7355748.42547  -5691444.34547  22829404.1964   22829408.1844   22829405.006
        47.0004         42.0004
 15  1  1  0  0 50.0000000  0  9G29G05G15G13G02G24G26G12G21
   4540790.86147   3547246.94946  24452336.3234   24452344.8224   24452336.539
        45.0004         40.0004
 -12987707.11948 -10117053.98848  21575069.9934   21575073.1444   21575069.445
        53.0004         49.0004
 -19239920.17849 -14958349.29648  21738157.0684   21738159.7404   21738156.475
        54.0004         49.0004
   -497412.66647   -368390.71447  23128990.0084   23128992.6294   23128989.632
        47.0004         42.0004
   -721816.30047   -554028.10446  24086073.4234   24086076.8424   24086074.567
        45.0004         40.0004
 -20624026.05849 -16052392.54748  21028308.9384   21028314.0984   21028308.379
        55.0004         50.0004
  -1377715.09348  -1053416.34847  22919796.0974   22919798.8144   22919796.300
        49.0004         45.0004
  -3651177.63347  -2816236.59246  24663461.8224   24663465.6964   24663460.701
        42.0004         37.0004
  -7357748.43247  -5693002.79447  22829024.4094   22829027.2214   22829024.602
        47.0004         42.0004
 15  1  1  0  0 51.0000000  0  9G29G05G15G13G02G24G26G12G21
   4542363.95347   3548472.73846  24452636.2694   24452643.8264   24452635.808
        45.0004         40.0004
 -12986898.98748 -10116424.27248  21575223.8684   21575227.1574   21575223.290
        53.0004         49.0004
 -19239954.77649 -14958376.25448  21738150.5234   21738153.1824   21738149.937
        54.0004         49.0004
   -495438.52747   -366852.42147  23129366.0574   23129368.2984   23129365.249
        47.0004         43.0004
   -718446.24747   -551402.08846  24086714.5294   24086718.2434   24086715.840
        45.0004         40.0004
 -20625902.44949 -16053854.66848  21027951.7854   21027957.2714   21027951.327
        55.0004         50.0004
  -1376227.88948  -1052257.48647  22920078.8064   22920082.7894   22920079.412
        49.0004         45.0004
  -3653650.06947  -2818163.16246  24662991.4684   24662996.1764   24662990.167
        42.0004         37.0004
  -7359746.99847  -5694560.11947  22828642.9024   22828646.3654   22828644.285
        47.0004         42.0004
 15  1  1  0  0 52.0000000  0  9G29G05G15G13G02G24G26G12G21
   4543937.20147   3549698.64646  24452935.6254   24452943.5404   24452935.105
        45.0004         40.0004
 -12986090.33848 -10115794.15948  21575377.9934   21575381.0594   21575377.197
        53.0004         49.0004
 -19239989.16149 -14958403.05248  21738143.8874   21738146.1524   21738143.350
        54.0004         49.0004
   -493464.33747   -365314.08847  23129741.7564   23129742.9984   23129740.838
        47.0004         43.0004
   -715076.03947   -548775.95346  24087355.6704   24087359.3994   24087357.404
        45.0004         40.0004
 -20627778.19249 -16055316.28948  21027594.8964   21027600.2014   21027594.325
        55.0004         50.0004
  -1374740.63148  -1051098.59347  22920361.8434   22920365.4544   22920362.555
        49.0004         45.0004
  -3656122.57347  -2820089.78746  24662521.1764   24662526.0234   24662519.894
        42.0004         37.0004
  -7361744.87447  -5696116.90547  22828263.1824   22828266.0634   22828264.053
        47.0004         42.0004
 15  1  1  0  0 53.0000000  0  9G29G05G15G13G02G24G26G12G21
   4545510.12347   3550924.30046  24453235.1454   24453242.8114   24453234.455
        45.0004         40.0004
 -12985281.61548 -10115163.98448  21575531.8654   21575534.5004   21575531.126
        53.0004         49.0004
 -19240023.78449 -14958430.02748  21738137.1054   21738140.1684   21738136.765
        54.0004         49.0004
   -491490.55047   -363776.07647  23130116.5154   23130119.6074   23130116.579
        47.0004         43.0004
   -711706.15247   -546150.06946  24087996.3414   24088000.4044   24087998.557
        45.0004         40.0004
 -20629653.75049 -16056777.76048  21027237.9404   21027243.2154   21027237.399
        55.0004         50.0004
  -1373253.78448  -1049940.01347  22920645.3674   22920648.3974   22920645.597
        49.0004         45.0004
  -3658595.67247  -2822016.87346  24662050.3044   24662055.1804   24662049.396
        42.0004         37.0004
  -7363742.55147  -5697673.53747  22827883.3154   22827886.9464   22827883.961
        47.0004         42.0004
 15  1  1  0  0 54.0000000  0  9G29G05G15G13G02G24G26G12G21
   4547083.83947   3552150.57446  24453535.0904   24453542.7704   24453534.169
        45.0004         40.0004
 -12984471.70948 -10114532.88948  21575685.9474   21575689.0534   21575685.248
        53.0004         49.0004
 -19240057.53549 -14958456.32648  21738130.8784   21738133.3214   21738130.417
        54.0004         49.0004
   -489516.01347   -362237.47347  23130492.9674   23130495.3734   23130492.324
        47.0004         43.0004
   -708335.45547   -543523.55546  24088638.1184   24088642.0304   24088639.915
        45.0004         40.0004
 -20631527.99549 -16058238.21148  21026881.1874   21026886.5934   21026880.748
        55.0004         50.0004
  -1371766.22148  -1048780.87247  22920928.9354   22920932.0004   22920928.855
        49.0004         45.0004
  -3661068.16147  -2823943.48446  24661579.8104   24661584.7914   24661578.737
