     2.11           OBSERVATION DATA    G (GPS)             RINEX VERSION / TYPE
clockShift          gpsops              20150101 002202 UTC PGM / RUN BY / DATE
teqc  2013Mar15     gpsops              20150101 00:22:02UTCCOMMENT
Linux 2.4.21-27.ELsmp|Opteron|gcc -static|Linux x86_64|=+   COMMENT
BIT 2 OF LLI FLAGS DATA COLLECTED UNDER A/S CONDITION       COMMENT
AMC2                                                        MARKER NAME
40472S004                                                   MARKER NUMBER
GGN                 USNO                                    OBSERVER / AGENCY
RT920013101         ASHTECH Z-XII3T     IL01-1D04-MCF-12MX  REC # / TYPE / VERS
KW-0201             AOAD/M_T        NONE                    ANT # / TYPE
 -1248596.2520 -4819428.2840  3976506.0340                  APPROX POSITION XYZ
        0.0000        0.0000        0.0000                  ANTENNA: DELTA H/E/N
     1     1                                                WAVELENGTH FACT L1/2
     7    L1    L2    P1    P2    C1    S1    S2            # / TYPES OF OBSERV
     1.0000                                                 INTERVAL
                                                            COMMENT
This data is provided as a public service by NASA/JPL.      COMMENT
No warranty is expressed or implied regarding suitability   COMMENT
for use.  For further information, contact:                 COMMENT
Dave Stowers, NASA/JPL m/s 238-600                          COMMENT
4800 Oak Grove Drive, Pasadena CA 91109 USA                 COMMENT
                                                            COMMENT
 SNR is mapped to RINEX snr flag value [0-9]                COMMENT
  L1 & L2: min(max(int(snr_dBHz/6), 0), 9)                  COMMENT
pseudorange smoothing corrections not applied               COMMENT
clockShift applied 466.79 L1, 478.44 L2 (ns)                COMMENT
  2015     1     1     0     0    0.0000000     GPS         TIME OF FIRST OBS
                                                            END OF HEADER
 15  1  1  0  0  0.0000000  0 10G23G14G03G04G20G01G11G31G32G25
  -7311160.29346  -5498672.48846  23821561.9324   23821561.3584   23821562.169
        39.2004         36.9004
  -4638020.88646  -3591682.76945  23592922.4534   23592922.1154   23592922.599
        38.2004         35.9004
 -22001901.97547 -16899706.12447  21190751.7904   21190754.0294   21190751.204
        47.2004         44.2004
  -4557545.62446  -3279573.65246  24116048.9304   24116051.1054   24116048.929
        39.4004         36.9004
  -8597466.14746  -6675385.80146  22638201.2984   22638202.5164   22638201.647
        40.3004         37.6004
  -8267890.62946  -6179869.29246  23096007.1744   23096010.7934   23096006.504
        40.4004         37.8004
   3372962.13245   3543048.66045  25292266.9364   25292272.3034   25292267.551
        33.8004         32.7004
 -19011670.21147 -14787382.79047  20913621.8074   20913620.7474   20913621.757
        47.7004         44.7004
 -21103426.44348 -15635599.60847  20565477.0774   20565477.8734   20565477.847
        48.6004         45.6004
   -230250.96446   -167031.04145  24462445.9134   24462449.2844   24462446.573
        37.5004         35.5004
 15  1  1  0  0  1.0000000  0 10G23G14G03G04G20G01G11G31G32G25
  -7313763.96146  -5500701.32146  23821065.2224   23821065.8114   23821066.753
        39.2004         36.7004
  -4635675.01246  -3589854.81445  23593368.8314   23593368.4914   23593368.999
        38.2004         35.7004
 -22003856.41247 -16901229.05947  21190379.9294   21190381.8084   21190379.300
        47.2004         44.2004
  -4554402.96146  -3277124.82546  24116647.5284   24116649.2744   24116646.983
        39.4004         36.9004
  -8600316.86846  -6677607.14346  22637658.8444   22637660.4014   22637659.059
        40.3004         37.6004
  -8265697.23246  -6178160.15046  23096424.4854   23096427.7564   23096423.848
        40.4004         37.8004
   3375644.82145   3545139.06345  25292775.8574   25292781.4714   25292778.030
        33.8004         32.7004
 -19009650.54347 -14785809.02047  20914006.4344   20914004.9694   20914006.097
        47.7004         44.7004
 -21102703.96248 -15635036.63447  20565614.8554   20565615.6234   20565615.319
        48.6004         45.6004
   -227621.79046   -164982.33545  24462946.3944   24462949.5374   24462946.789
        37.6004         35.5004
 15  1  1  0  0  2.0000000  0 10G23G14G03G04G20G01G11G31G32G25
  -7316367.61846  -5502730.14246  23820570.2754   23820570.7844   23820571.359
        39.2004         36.9004
  -4633329.03046  -3588026.77545  23593814.6684   23593815.2154   23593815.397
        38.2004         35.7004
 -22005810.38347 -16902751.63247  21190007.7534   21190009.7524   21190007.453
        47.2004         44.2004
  -4551260.26146  -3274675.97246  24117245.3294   24117246.2254   24117245.053
        39.4004         36.9004
  -8603167.22746  -6679828.19746  22637116.2534   22637118.1874   22637116.555
        40.3004         37.4004
  -8263503.44946  -6176450.70846  23096841.1564   23096844.9924   23096841.346
        40.4004         37.9004
   3378327.44345   3547229.41545  25293285.3394   25293291.7854   25293288.469
        33.8004         32.7004
 -19007630.52047 -14784234.97747  20914390.6914   20914389.4024   20914390.516
        47.7004         44.5004
 -21101980.96548 -15634473.25947  20565752.2574   20565753.0944   20565752.888
        48.6004         45.6004
   -224992.18946   -162933.29445  24463447.1104   24463449.6444   24463447.163
        37.6004         35.5004
 15  1  1  0  0  3.0000000  0 10G23G14G03G04G20G01G11G31G32G25
  -7318971.25146  -5504758.94346  23820075.2564   23820074.9474   23820075.918
        39.2004         36.7004
  -4630982.93946  -3586198.64645  23594261.5244   23594261.4054   23594261.844
        38.2004         35.7004
 -22007763.86147 -16904273.82247  21189636.2724   21189638.0254   21189635.692
        47.2004         44.4004
  -4548117.49746  -3272227.06946  24117843.8734   24117844.9614   24117843.108
        39.4004         37.1004
  -8606017.27146  -6682049.00746  22636573.4134   22636575.2734   22636574.174
        40.3004         37.4004
  -8261309.29046  -6174740.97346  23097259.3324   23097263.0684   23097258.902
        40.4004         37.8004
   3381010.06645   3549319.76645  25293795.9724   25293801.4234   25293798.959
        33.8004         32.7004
 -19005610.11747 -14782660.63547  20914775.2644   20914773.6944   20914775.000
        47.7004         44.5004
 -21101257.43348 -15633909.47147  20565890.0044   20565890.8174   20565890.584
        48.6004         45.6004
   -222362.12746   -160883.89545  24463947.7114   24463949.9304   24463947.679
        37.6004         35.5004
 15  1  1  0  0  4.0000000  0 10G23G14G03G04G20G01G11G31G32G25
  -7321574.85646  -5506787.71946  23819579.5334   23819579.1644   23819580.438
        39.2004         36.6004
  -4628636.73146  -3584370.43245  23594708.0444   23594707.9824   23594708.345
        38.2004         35.7004
 -22009716.88247 -16905795.65447  21189264.9804   21189266.1784   21189264.035
        47.2004         44.4004
  -4544974.69346  -3269778.13546  24118441.9874   24118443.1314   24118441.175
        39.4004         36.9004
  -8608866.94846  -6684269.52946  22636031.2274   22636033.0264   22636031.916
        40.3004         37.4004
  -8259114.73646  -6173030.92946  23097677.1434   23097680.7874   23097676.573
        40.4004         37.9004
   3383692.61445   3551410.06545  25294307.7124   25294311.9274   25294309.405
        33.7004         32.6004
 -19003589.34947 -14781086.00647  20915159.6124   20915158.1324   20915159.574
        47.7004         44.5004
 -21100533.37748 -15633345.26847  20566027.8194   20566028.4294   20566028.353
        48.6004         45.6004
   -219731.61946   -158834.14845  24464447.9264   24464450.2644   24464448.321
        37.6004         35.5004
 15  1  1  0  0  5.0000000  0 10G23G14G03G04G20G01G11G31G32G25
  -7324178.44146  -5508816.48446  23819084.1964   23819084.0164   23819084.901
        39.2004         36.7004
  -4626290.44046  -3582542.15245  23595154.5184   23595154.6234   23595154.890
        38.2004         35.7004
 -22011669.41847 -16907317.11147  21188893.1094   21188894.9804   21188892.456
        47.2004         44.4004
  -4541831.81946  -3267329.14646  24119040.8074   24119042.3834   24119039.198
        39.4004         37.1004
  -8611716.31446  -6686489.81046  22635489.4164   22635490.3564   22635489.777
        40.3004         37.4004
  -8256919.81746  -6171320.60646  23098094.8804   23098097.6734   23098094.274
        40.4004         37.8004
   3386375.15045   3553500.34745  25294818.6714   25294822.5684   25294819.773
        33.8004         32.6004
 -19001568.21847 -14779511.10347  20915544.4854   20915543.2274   20915544.190
        47.7004         44.5004
 -21099808.78348 -15632780.65047  20566165.6814   20566166.3734   20566166.221
        48.6004         45.6004
   -217100.67346   -156784.05945  24464948.6594   24464950.8934   24464948.962
        37.6004         35.7004
 15  1  1  0  0  6.0000000  0 10G23G14G03G04G20G01G11G31G32G25
  -7326781.97646  -5510845.20946  23818588.0574   23818588.8494   23818589.437
        39.2004         36.7004
  -4623944.02246  -3580713.77345  23595601.5344   23595601.3324   23595601.385
        38.2004         35.7004
 -22013621.47347 -16908838.19447  21188521.4034   21188523.3794   21188520.972
        47.2004         44.2004
  -4538688.89446  -3264880.11546  24119637.5204   24119640.3994   24119637.199
        39.4004         37.1004
  -8614565.31246  -6688709.81046  22634946.9074   22634947.7154   22634947.662
        40.3004         37.4004
  -8254724.50646  -6169609.97746  23098512.6544   23098515.4394   23098512.005
        40.4004         37.8004
   3389057.67045   3555590.62345  25295328.8994   25295333.7934   25295330.153
        33.7004         32.6004
 -18999546.71147 -14777935.90247  20915929.0894   20915927.6034   20915928.859
        47.7004         44.7004
 -21099083.65148 -15632215.61147  20566303.5164   20566304.3194   20566304.222
        48.6004         45.6004
   -214469.26346   -154733.60645  24465449.2584   24465451.5934   24465449.730
        37.6004         35.7004
 15  1  1  0  0  7.0000000  0 10G23G14G03G04G20G01G11G31G32G25
  -7329385.50646  -5512873.92746  23818092.5834   23818094.1034   23818093.897
        39.2004         36.9004
  -4621597.49746  -3578885.31345  23596048.1994   23596047.4474   23596047.904
        38.2004         35.7004
 -22015573.04547 -16910358.89547  21188150.4514   21188152.0184   21188149.594
        47.2004         44.2004
  -4535545.90846  -3262431.03546  24120234.9884   24120238.0414   24120235.250
        39.4004         36.9004
  -8617413.98446  -6690929.55846  22634404.9644   22634405.2234   22634405.627
        40.3004         37.4004
  -8252528.82446  -6167899.05246  23098930.2714   23098933.1304   23098929.822
        40.4004         37.8004
   3391740.13645   3557680.85445  25295839.4574   25295843.7804   25295840.760
        33.7004         32.6004
 -18997524.83447 -14776360.41547  20916313.8524   20916312.1484   20916313.617
        47.7004         44.5004
 -21098357.99948 -15631650.17147  20566441.7394   20566442.4764   20566442.325
        48.6004         45.4004
   -211837.40246   -152682.80645  24465950.4194   24465952.2174   24465950.587
        37.6004         35.7004
 15  1  1  0  0  8.0000000  0 10G23G14G03G04G20G01G11G31G32G25
  -7331989.01246  -5514902.62446  23817598.5734   23817599.0414   23817598.442
        39.2004         36.7004
  -4619250.87846  -3577056.78045  23596494.4114   23596493.9184   23596494.455
        38.2004         35.7004
 -22017524.14947 -16911879.23647  21187779.1594   21187780.6744   21187778.332
        47.2004         44.2004
  -4532402.89146  -3259981.92746  24120832.8334   24120835.3584   24120833.344
        39.4004         36.9004
  -8620262.30346  -6693149.02346  22633861.9294   22633863.8904   22633863.686
        40.3004         37.4004
  -8250332.73046  -6166187.80846  23099348.1734   23099351.5064   23099347.732
        40.4004         37.8004
   3394422.55845   3559771.04645  25296350.0414   25296355.5154   25296351.160
        33.7004         32.6004
 -18995502.60547 -14774784.65347  20916698.8144   20916697.5064   20916698.406
        47.7004         44.5004
 -21097631.80148 -15631084.30047  20566580.0054   20566580.7214   20566580.512
        48.6004         45.6004
   -209205.10846   -150631.66845  24466451.8414   24466453.4724   24466451.586
        37.8004         35.7004
 15  1  1  0  0  9.0000000  0 10G23G14G03G04G20G01G11G31G32G25
  -7334592.48046  -5516931.29646  23817103.3514   23817103.1504   23817102.916
        39.2004         36.7004
  -4616904.14546  -3575228.16045  23596940.6924   23596940.6134   23596941.024
        38.2004         35.7004
 -22019474.78147 -16913399.21047  21187407.7224   21187409.6374   21187407.130
        47.2004         44.2004
  -4529259.81546  -3257532.77646  24121430.3554   24121433.2604   24121431.387
        39.4004         36.9004
  -8623110.29246  -6695368.23646  22633320.3764   22633322.3454   22633321.775
        40.3004         37.4004
  -8248136.27546  -6164476.28746  23099766.0824   23099769.5114   23099765.669
        40.4004         37.9004
   3397104.92145   3561861.19745  25296860.2624   25296863.9824   25296861.757
        33.7004         32.6004
 -18993479.99847 -14773208.59347  20917083.6574   20917082.1964   20917083.302
        47.7004         44.7004
 -21096905.07348 -15630518.01847  20566718.2074   20566718.8584   20566718.821
        48.6004         45.6004
   -206572.34046   -148580.16045  24466952.6204   24466954.8704   24466952.687
        37.8004         35.7004
 15  1  1  0  0 10.0000000  0 10G23G14G03G04G20G01G11G31G32G25
  -7337195.94146  -5518959.96346  23816607.7244   23816607.4574   23816607.578
        39.2004         36.7004
  -4614557.30546  -3573399.45345  23597386.9964   23597386.6164   23597387.637
        38.2004         35.7004
 -22021424.92247 -16914918.79747  21187036.7274   21187038.3334   21187036.022
        47.2004         44.2004
  -4526116.69146  -3255083.59646  24122029.2904   24122032.0964   24122029.499
        39.4004         36.9004
  -8625957.92446  -6697587.16846  22632778.8504   22632780.1844   22632779.867
        40.3004         37.3004
  -8245939.43346  -6162764.46046  23100184.3774   23100187.2644   23100183.778
        40.4004         37.8004
   3399787.28945   3563951.34545  25297369.9094   25297373.6664   25297372.210
        33.7004         32.6004
 -18991457.02147 -14771632.24747  20917468.7304   20917467.0184   20917468.253
        47.7004         44.7004
 -21096177.82548 -15629951.33147  20566856.3974   20566857.4554   20566857.224
        48.6004         45.6004
   -203939.12646   -146528.30445  24467453.6894   24467456.3274   24467453.799
        37.8004         35.9004
 15  1  1  0  0 11.0000000  0 10G23G14G03G04G20G01G11G31G32G25
  -7339799.36546  -5520988.59846  23816113.2364   23816111.8414   23816112.143
        39.2004         36.7004
  -4612210.35046  -3571570.65445  23597833.4324   23597833.1844   23597834.338
        38.2004         35.7004
 -22023374.58647 -16916438.01347  21186665.4544   21186667.3624   21186665.009
        47.2004         44.2004
  -4522973.51646  -3252634.36646  24122626.8854   24122629.7804   24122627.640
        39.4004         36.9004
  -8628805.21046  -6699805.83046  22632236.4324   22632238.4164   22632238.034
        40.3004         37.4004
  -8243742.20546  -6161052.33146  23100602.4904   23100604.5564   23100601.944
        40.4004         37.8004
   3402469.60745   3566041.46245  25297879.2364   25297885.6224   25297882.809
        33.7004         32.7004
 -18989433.68447 -14770055.62247  20917853.3694   20917852.2844   20917853.313
        47.7004         44.7004
 -21095450.05248 -15629384.23447  20566995.2104   20566995.5964   20566995.732
        48.6004         45.6004
   -201305.44746   -144476.08545  24467954.8864   24467957.7784   24467954.875
        37.8004         35.9004
 15  1  1  0  0 12.0000000  0 10G23G14G03G04G20G01G11G31G32G25
  -7342402.77646  -5523017.23246  23815617.7414   23815616.8454   23815616.703
        39.2004         36.7004
  -4609863.29246  -3569741.78145  23598279.7794   23598279.7284   23598281.024
        38.2004         35.7004
 -22025323.77647 -16917956.85847  21186294.6974   21186296.2914   21186294.113
        47.2004         44.4004
  -4519830.28346  -3250185.09846  24123225.4214   24123227.9144   24123225.796
        39.4004         37.1004
  -8631652.17446  -6702024.24146  22631694.9604   22631696.4404   22631696.273
        40.3004         37.6004
  -8241544.58246  -6159339.90146  23101020.5754   23101023.1384   23101020.122
        40.4004         37.8004
   3405151.88045   3568131.54545  25298389.1004   25298396.8034   25298393.332
        33.8004         32.7004
 -18987409.97547 -14768478.70647  20918238.2064   20918237.0734   20918238.426
        47.7004         44.7004
 -21094721.74048 -15628816.71947  20567133.8234   20567134.1084   20567134.334
        48.6004         45.4004
   -198671.34446   -142423.53645  24468456.2624   24468458.9534   24468456.040
        37.8004         35.9004
 15  1  1  0  0 13.0000000  0 10G23G14G03G04G20G01G11G31G32G25
  -7345006.15746  -5525045.83646  23815121.9264   23815121.4024   23815121.242
        39.2004         36.9004
  -4607516.14046  -3567912.83645  23598726.0344   23598727.2144   23598727.683
        38.2004         35.7004
 -22027272.49247 -16919475.33847  21185923.6574   21185925.8444   21185923.278
        47.2004         44.2004
  -4516686.99246  -3247735.78546  24123823.8274   24123825.4584   24123823.859
        39.4004         36.9004
  -8634498.80346  -6704242.39046  22631153.4904   22631153.9654   22631154.580
        40.3004         37.6004
  -8239346.61346  -6157627.20146  23101439.0134   23101441.9864   23101438.420
        40.4004         37.8004
   3407834.10145   3570221.58945  25298899.6064   25298907.9264   25298903.853
        33.7004         32.6004
 -18985385.92447 -14766901.51947  20918623.5574   20918622.4034   20918623.595
        47.7004         44.7004
 -21093992.89248 -15628248.78447  20567272.1524   20567272.9814   20567273.002
        48.6004         45.6004
   -196036.76146   -140370.61245  24468957.4024   24468960.0224   24468957.259
        37.8004         35.9004
 15  1  1  0  0 14.0000000  0 10G23G14G03G04G20G01G11G31G32G25
  -7347609.51046  -5527074.42246  23814626.1874   23814625.6274   23814625.813
        39.2004         36.9004
  -4605168.86046  -3566083.78345  23599172.2654   23599174.0144   23599174.305
        38.2004         35.7004
 -22029220.72047 -16920993.43647  21185553.0044   21185554.9444   21185552.543
        47.2004         44.2004
  -4513543.64646  -3245286.42246  24124421.9914   24124423.7004   24124422.037
        39.4004         36.9004
  -8637345.08046  -6706460.26346  22630612.2664   22630611.9584   22630612.905
        40.3004         37.6004
  -8237148.22646  -6155914.17146  23101856.8164   23101860.3794   23101856.722
        40.4004         37.6004
   3410516.32845   3572311.63045  25299411.7784   25299418.6494   25299414.391
        33.7004         32.6004
 -18983361.48947 -14765324.03747  20919008.9994   20919007.8974   20919008.853
        47.7004         44.5004
 -21093263.50248 -15627680.42647  20567411.2484   20567411.8824   20567411.817
        48.6004         45.6004
   -193401.73346   -138317.34145  24469458.9234   24469461.5044   24469458.594
        37.8004         35.9004
 15  1  1  0  0 15.0000000  0 10G23G14G03G04G20G01G11G31G32G25
  -7350212.84146  -5529102.98446  23814130.8754   23814130.2584   23814130.437
        39.2004         36.9004
  -4602821.48546  -3564254.66045  23599619.0474   23599620.8564   23599620.908
        38.2004         35.7004
 -22031168.47647 -16922511.16747  21185182.3274   21185184.6874   21185181.895
        47.2004         44.4004
  -4510400.27346  -3242837.04746  24125019.3734   24125022.2784   24125020.147
        39.4004         36.9004
  -8640191.00746  -6708677.86546  22630070.6774   22630071.4354   22630071.342
        40.3004         37.6004
  -8234949.48646  -6154200.87046  23102275.3804   23102278.8234   23102275.164
        40.4004         37.8004
   3413198.47445   3574401.61345  25299923.3944   25299926.9184   25299924.876
        33.7004         32.6004
 -18981336.69947 -14763746.28147  20919394.5124   20919393.0314   20919394.150
        47.7004         44.5004
 -21092533.58948 -15627111.66347  20567550.0424   20567550.8724   20567550.709
        48.6004         45.6004
   -190766.27446   -136263.73745  24469960.3044   24469963.4424   24469960.089
        38.0004         35.9004
 15  1  1  0  0 16.0000000  0 10G23G14G03G04G20G01G11G31G32G25
  -7352816.15446  -5531131.53646  23813635.5164   23813635.1974   23813635.120
        39.2004         36.9004
  -4600473.99446  -3562425.44445  23600066.0624   23600067.0784   23600067.609
        38.2004         35.7004
 -22033115.75247 -16924028.52647  21184811.9284   21184814.4524   21184811.339
        47.2004         44.2004
  -4507256.82346  -3240387.60846  24125617.4094   24125621.5724   24125618.346
        39.4004         36.9004
  -8643036.59646  -6710895.20846  22629529.3984   22629529.7594   22629529.884
        40.3004         37.6004
  -8232750.33246  -6152487.24846  23102693.5414   23102697.7474   23102693.673
        40.4004         37.8004
   3415880.59545   3576491.57245  25300434.5354   25300437.3974   25300435.354
        33.7004         32.7004
 -18979311.53947 -14762168.23447  20919779.5394   20919778.1664   20919779.512
        47.7004         44.5004
 -21091803.13248 -15626542.47747  20567689.2204   20567689.8114   20567689.714
        48.6004         45.6004
   -188130.34246   -134209.76445  24470462.4254   24470465.6484   24470461.661
        38.0004         35.9004
 15  1  1  0  0 17.0000000  0 10G23G14G03G04G20G01G11G31G32G25
  -7355419.42146  -5533160.05646  23813140.4164   23813139.4184   23813139.795
        39.2004         36.9004
  -4598126.38946  -3560596.14045  23600513.5274   23600513.7654   23600514.430
        38.2004         35.7004
 -22035062.54647 -16925545.50747  21184441.2424   21184443.4554   21184440.878
        47.2004         44.2004
  -4504113.34546  -3237938.13946  24126215.5904   24126218.6454   24126216.468
        39.4004         36.9004
  -8645881.84746  -6713112.28646  22628987.9174   22628988.3774   22628988.527
        40.3004         37.6004
  -8230550.80146  -6150773.32846  23103112.0754   23103116.3644   23103112.181
        40.4004         37.8004
   3418562.70145   3578581.52245  25300945.1034   25300947.7684   25300945.885
        33.8004         32.9004
 -18977286.01747 -14760589.90347  20920165.0074   20920163.9354   20920164.949
        47.7004         44.5004
 -21091072.14648 -15625972.87447  20567828.1944   20567828.9584   20567828.807
        48.6004         45.6004
   -185493.97846   -132155.45346  24470963.8324   24470967.2574   24470963.371
        38.0004         36.0004
 15  1  1  0  0 18.0000000  0 10G23G14G03G04G20G01G11G31G32G25
  -7358022.68946  -5535188.57446  23812645.2564   23812643.4864   23812644.514
        39.2004         36.7004
  -4595778.68746  -3558766.76145  23600960.2824   23600960.2964   23600961.202
        38.2004         35.7004
 -22037008.86947 -16927062.12147  21184070.9874   21184072.9624   21184070.487
        47.2004         44.2004
  -4500969.82046  -3235488.63946  24126813.9614   24126816.4374   24126814.626
        39.4004         36.9004
  -8648726.75746  -6715329.09846  22628446.5614   22628447.5474   22628447.230
        40.3004         37.6004
  -8228350.90846  -6149059.12446  23103530.5464   23103535.2254   23103530.776
        40.4004         37.9004
   3421244.74945   3580671.42745  25301455.6464   25301458.4374   25301456.318
        33.8004         32.9004
 -18975260.13347 -14759011.29047  20920550.5524   20920549.3364   20920550.448
        47.7004         44.5004
 -21090340.64648 -15625402.87747  20567967.4284   20567968.0084   20567968.038
        48.6004         45.6004
   -182857.15946   -130100.79046  24471465.5624   24471469.3194   24471465.359
        38.0004         36.0004
 15  1  1  0  0 19.0000000  0 10G23G14G03G04G20G01G11G31G32G25
  -7360625.91846  -5537217.06446  23812149.8324   23812148.7044   23812149.103
        39.2004         36.7004
  -4593430.89146  -3556937.30945  23601406.9604   23601407.0194   23601407.935
        38.2004         35.9004
 -22038954.70947 -16928578.35847  21183700.3814   21183702.6554   21183700.218
        47.2004         44.2004
  -4497826.23746  -3233039.09346  24127412.6274   24127414.9474   24127412.790
        39.4004         36.9004
  -8651571.32146  -6717545.63746  22627904.5804   22627906.0154   22627905.968
        40.3004         37.6004
  -8226150.62346  -6147344.61446  23103949.0654   23103953.8604   23103949.519
        40.4004         37.9004
   3423926.79045   3582761.33045  25301967.2054   25301968.7554   25301966.555
        34.0004         32.9004
 -18973233.87447 -14757432.39147  20920936.3754   20920934.8174   20920936.009
        47.7004         44.7004
 -21089608.60348 -15624832.45347  20568106.7174   20568107.3584   20568107.369
        48.6004         45.6004
   -180219.89546   -128045.77945  24471967.5804   24471970.9474   24471967.376
        38.0004         35.9004
 15  1  1  0  0 20.0000000  0 10G23G14G03G04G20G01G11G31G32G25
  -7363229.13746  -5539245.54646  23811654.4064   23811653.4284   23811653.635
        39.2004         36.7004
  -4591082.96146  -3555107.75245  23601853.6194   23601853.5784   23601854.650
        38.2004         35.7004
 -22040900.07847 -16930094.22847  21183330.4934   21183332.7954   21183330.018
        47.2004         44.2004
  -4494682.60046  -3230589.50846  24128011.2354   24128013.1894   24128011.039
        39.4004         36.7004
  -8654415.54746  -6719761.91446  22627364.0194   22627365.4204   22627364.737
        40.3004         37.6004
  -8223949.97146  -6145629.82046  23104368.4734   23104372.6164   23104368.279
        40.4004         37.8004
   3426608.77445   3584851.18945  25302476.0164   25302480.4514   25302476.992
        34.0004         32.9004
 -18971207.25647 -14755853.20647  20921321.7724   20921320.4384   20921321.671
        47.7004         44.7004
 -21088876.04348 -15624261.62847  20568246.1554   20568246.7444   20568246.769
        48.6004         45.6004
   -177582.17146   -125990.40745  24472469.4394   24472472.5704   24472469.397
        38.0004         35.9004
 15  1  1  0  0 21.0000000  0 10G23G14G03G04G20G01G11G31G32G25
  -7365832.33046  -5541273.99946  23811158.1594   23811157.5654   23811158.302
        39.2004         36.9004
  -4588734.93946  -3553278.12345  23602300.3794   23602300.3114   23602301.425
        38.2004         35.9004
 -22042844.95747 -16931609.71547  21182960.5444   21182962.3534   21182959.908
        47.2004         44.2004
  -4491538.91646  -3228139.88346  24128609.8634   24128611.7394   24128609.314
        39.4004         36.7004
  -8657259.41446  -6721977.90946  22626823.2744   22626823.8734   22626823.603
        40.3004         37.6004
  -8221748.91846  -6143914.71346  23104787.6114   23104791.0264   23104787.125
        40.4004         37.9004
   3429290.70445   3586940.99945  25302985.9004   25302989.6584   25302987.254
        34.0004         33.1004
 -18969180.26747 -14754273.73247  20921707.5784   20921705.9534   20921707.414
        47.7004         44.7004
 -21088142.93548 -15623690.37347  20568385.5414   20568386.2534   20568386.277
        48.6004         45.6004
   -174944.01146   -123934.69645  24472971.5844   24472974.6964   24472971.498
        38.0004         35.9004
 15  1  1  0  0 22.0000000  0 10G23G14G03G04G20G01G11G31G32G25
  -7368435.49346  -5543302.43746  23810662.4754   23810662.6454   23810662.990
        39.2004         36.7004
  -4586386.80546  -3551448.41145  23602747.7674   23602747.1504   23602748.299
        38.2004         35.9004
 -22044789.36347 -16933124.83847  21182590.1274   21182592.3394   21182589.904
        47.2004         44.2004
  -4488395.18346  -3225690.21946  24129208.2554   24129209.4764   24129207.544
        39.4004         36.9004
  -8660102.95746  -6724193.66446  22626282.1714   22626283.2524   22626282.558
        40.3004         37.6004
  -8219547.48446  -6142199.31046  23105206.3874   23105209.6504   23105205.961
        40.4004         37.9004
   3431972.62145   3589030.80445  25303496.7004   25303499.6374   25303497.551
        34.0004         33.3004
 -18967152.91347 -14752693.97647  20922093.4754   20922092.0064   20922093.220
        47.7004         44.5004
 -21087409.29748 -15623118.70747  20568525.2144   20568525.9764   20568525.871
        48.6004         45.6004
   -172305.38546   -121878.62245  24473473.8804   24473476.7244   24473473.628
        38.0004         35.9004
 15  1  1  0  0 23.0000000  0 10G23G14G03G04G20G01G11G31G32G25
  -7371038.62546  -5545330.84646  23810167.1104   23810167.0704   23810167.634
        39.2004         36.9004
  -4584038.54546  -3549618.59645  23603194.9004   23603194.1774   23603195.232
        38.2004         35.9004
 -22046733.27447 -16934639.56947  21182220.5594   21182222.4434   21182219.966
        47.2004         44.2004
  -4485251.39046  -3223240.50846  24129806.0374   24129808.0474   24129805.801
        39.4004         36.9004
  -8662946.14446  -6726409.12846  22625740.7664   22625742.8234   22625741.535
        40.3004         37.6004
  -8217345.67846  -6140483.61946  23105625.5444   23105628.8644   23105624.960
        40.4004         37.8004
   3434654.50845   3591120.58245  25304006.2464   25304011.1064   25304007.907
        34.2004         33.1004
 -18965125.19847 -14751113.93847  20922479.2254   20922477.8954   20922479.070
        47.7004         44.5004
 -21086675.13748 -15622546.63147  20568664.8024   20568665.5384   20568665.566
        48.6004         45.6004
   -169666.32946   -119822.20945  24473976.1664   24473978.4394   24473975.848
        38.0004         35.9004
 15  1  1  0  0 24.0000000  0 10G23G14G03G04G20G01G11G31G32G25
  -7373641.73546  -5547359.24146  23809671.3614   23809671.6234   23809672.296
        39.2004         37.1004
  -4581690.19246  -3547788.71345  23603641.9974   23603641.5414   23603642.002
        38.2004         35.7004
 -22048676.72647 -16936153.94647  21181850.9304   21181852.6954   21181850.137
        47.2004         44.2004
  -4482107.54246  -3220790.76046  24130405.2034   24130407.2244   24130404.062
        39.4004         36.9004
  -8665788.99146  -6728624.33346  22625199.6944   22625201.4554   22625200.576
        40.3004         37.6004
  -8215143.48046  -6138767.62046  23106044.5544   23106048.2884   23106044.009
        40.4004         37.8004
   3437336.33845   3593210.31945  25304516.8634   25304521.4794   25304518.293
        34.2004         33.1004
 -18963097.11847 -14749533.61447  20922865.1444   20922863.9854   20922865.009
        47.7004         44.5004
 -21085940.43748 -15621974.13847  20568804.6594   20568805.6194   20568805.370
        48.6004         45.6004
   -167026.77446   -117765.41045  24474478.1754   24474480.7854   24474478.110
        38.0004         35.9004
 15  1  1  0  0 25.0000000  0 10G23G14G03G04G20G01G11G31G32G25
  -7376244.83046  -5549387.62146  23809175.9184   23809175.7954   23809176.974
        39.2004         37.1004
  -4579341.74046  -3545958.75145  23604088.3114   23604088.8194   23604088.882
        38.0004         35.7004
 -22050619.69247 -16937667.94847  21181480.9224   21181482.8214   21181480.389
        47.2004         44.2004
  -4478963.64146  -3218340.96646  24131002.9844   24131005.1624   24131002.369
        39.4004         36.9004
  -8668631.50346  -6730839.27346  22624658.7604   22624660.3404   22624659.607
        40.1004         37.4004
  -8212940.90946  -6137051.33046  23106463.5434   23106466.9604   23106463.095
        40.4004         37.9004
   3440018.13045   3595300.02745  25305027.9674   25305032.4594   25305028.600
        34.2004         33.1004
 -18961068.67747 -14747953.01247  20923251.2564   20923249.9014   20923250.969
        47.7004         44.5004
 -21085205.20948 -15621401.23547  20568944.6324   20568945.4864   20568945.268
        48.6004         45.4004
   -164386.84346   -115708.31945  24474980.5694   24474982.7294   24474980.425
        38.0004         35.9004
 15  1  1  0  0 26.0000000  0 10G23G14G03G04G20G01G11G31G32G25
  -7378847.89446  -5551415.97846  23808681.0014   23808680.6374   23808681.661
        39.2004         37.1004
  -4576993.17946  -3544128.70245  23604534.8644   23604535.9054   23604535.743
        38.2004         35.7004
 -22052562.19347 -16939181.58247  21181111.2654   21181113.1024   21181110.750
        47.2004         44.2004
  -4475819.69346  -3215891.13846  24131601.1944   24131604.1604   24131600.669
        39.4004         36.9004
  -8671473.67846  -6733053.95046  22624118.1864   22624118.6554   22624118.781
        40.1004         37.6004
  -8210737.95846  -6135334.75046  23106882.6204   23106886.3074   23106882.237
        40.4004         37.9004
   3442699.87445   3597389.69745  25305538.1974   25305543.9114   25305538.962
        34.2004         33.1004
 -18959039.86547 -14746372.11947  20923637.6254   20923635.7944   20923637.026
        47.7004         44.5004
 -21084469.44748 -15620827.91447  20569084.5844   20569085.4874   20569085.262
        48.6004         45.6004
   -161746.40346   -113650.83345  24475483.2414   24475485.6864   24475482.761
        38.0004         35.9004
 15  1  1  0  0 27.0000000  0 10G23G14G03G04G20G01G11G31G32G25
  -7381450.94246  -5553444.31846  23808185.7004   23808184.5944   23808186.363
        39.2004         36.9004
  -4574644.50646  -3542298.56645  23604981.8554   23604983.0824   23604982.680
        38.2004         35.9004
 -22054504.19447 -16940694.83147  21180742.0204   21180743.4714   21180741.201
        47.2004         44.2004
  -4472675.69446  -3213441.27446  24132199.6724   24132202.3734   24132198.960
        39.4004         36.9004
  -8674315.49646  -6735268.35346  22623577.1614   22623578.0854   22623577.970
        40.3004         37.4004
  -8208534.62246  -6133617.86946  23107302.0214   23107305.7674   23107301.545
        40.4004         37.9004
   3445381.58845   3599479.33845  25306048.0944   25306053.8474   25306049.335
        34.2004         33.3004
 -18957010.69247 -14744790.94347  20924023.3014   20924021.8014   20924023.168
        47.7004         44.5004
 -21083733.13848 -15620254.16647  20569224.6544   20569225.5674   20569225.361
        48.6004         45.6004
   -159105.52846   -111593.00945  24475985.5054   24475988.4594   24475985.201
        38.0004         35.9004
 15  1  1  0  0 28.0000000  0 10G23G14G03G04G20G01G11G31G32G25
  -7384053.96346  -5555472.64846  23807689.8394   23807689.8584   23807691.143
        39.2004         36.9004
  -4572295.73046  -3540468.35345  23605428.3124   23605429.5734   23605429.574
        38.2004         35.7004
 -22056445.72747 -16942207.71147  21180372.2984   21180374.2914   21180371.737
        47.2004         44.2004
  -4469531.65446  -3210991.37446  24132797.2974   24132799.8534   24132797.238
        39.4004         36.9004
  -8677156.97046  -6737482.48746  22623036.5674   22623037.6494   22623037.260
        40.3004         37.6004
  -8206330.91446  -6131900.69246  23107721.2584   23107724.4744   23107720.842
        40.4004         37.9004
   3448063.25845   3601568.94345  25306558.4084   25306564.7074   25306559.627
        34.3004         33.3004
 -18954981.15047 -14743209.48547  20924409.4574   20924408.2484   20924409.363
        47.7004         44.5004
 -21082996.31448 -15619680.01747  20569364.8224   20569365.6834   20569365.579
        48.6004         45.6004
   -156464.22046   -109534.84645  24476488.0254   24476491.2084   24476487.805
        38.0004         35.9004
 15  1  1  0  0 29.0000000  0 10G23G14G03G04G20G01G11G31G32G25
  -7386656.94946  -5557500.94546  23807195.0594   23807194.9574   23807195.860
        39.2004         36.7004
  -4569946.82646  -3538638.03745  23605875.7604   23605875.8814   23605876.526
        38.0004         35.7004
 -22058386.76647 -16943720.20847  21180002.9804   21180004.9354   21180002.387
        47.2004         44.2004
  -4466387.54346  -3208541.41646  24133395.4484   24133398.7744   24133395.492
        39.4004         36.9004
  -8679998.10446  -6739696.35446  22622495.4934   22622496.6284   22622496.589
        40.1004         37.6004
  -8204126.80646  -6130183.20046  23108140.4314   23108143.9394   23108140.219
        40.4004         37.8004
   3450744.91945   3603658.55145  25307069.6934   25307074.1704   25307069.865
        34.3004         33.4004
 -18952951.24247 -14741627.73847  20924795.8724   20924794.4744   20924795.663
        47.7004         44.7004
 -21082258.95748 -15619105.45147  20569505.3504   20569505.8584   20569505.894
        48.6004         45.6004
   -153822.44246   -107476.31745  24476990.0924   24476993.9904   24476990.510
        38.0004         35.9004
 15  1  1  0  0 30.0000000  0 10G23G14G03G04G20G01G11G31G32G25
  -7389259.93246  -5559529.23746  23806699.1434   23806698.9854   23806700.564
        39.2004         36.7004
  -4567597.82546  -3536807.64845  23606323.1684   23606322.6984   23606323.534
        38.0004         35.7004
 -22060327.33847 -16945232.33847  21179633.6584   21179635.8484   21179633.127
        47.2004         44.2004
  -4463243.39946  -3206091.43946  24133993.6074   24133997.1994   24133993.808
        39.4004         36.7004
  -8682838.89946  -6741909.95646  22621954.5224   22621956.2354   22621955.998
        40.1004         37.6004
  -8201922.33046  -6128465.42446  23108560.1194   23108563.1224   23108559.661
        40.4004         37.8004
   3453426.52845   3605748.11445  25307580.1574   25307584.5134   25307579.959
        34.3004         33.4004
 -18950920.97747 -14740045.71047  20925182.2284   20925180.6424   20925182.023
        47.7004         44.5004
 -21081521.06348 -15618530.46747  20569645.6704   20569646.3704   20569646.302
        48.6004         45.4004
   -151180.23346   -105417.45245  24477492.8704   24477496.7074   24477493.290
        38.0004         35.9004
 15  1  1  0  0 31.0000000  0 10G23G14G03G04G20G01G11G31G32G25
  -7391862.87446  -5561557.49946  23806202.8374   23806203.3174   23806205.317
        39.2004         36.7004
  -4565248.70546  -3534977.16345  23606769.6974   23606769.4334   23606770.486
        38.0004         35.7004
 -22062267.42347 -16946744.09147  21179264.5234   21179266.6194   21179263.951
        47.2004         44.2004
  -4460099.20246  -3203641.41446  24134591.1794   24134594.8024   24134592.161
        39.4004         36.9004
  -8685679.35346  -6744123.29346  22621414.4404   22621415.8654   22621415.483
        40.1004         37.6004
  -8199717.47746  -6126747.35546  23108979.9784   23108982.6824   23108979.165
        40.4004         37.8004
   3456108.10045   3607837.64945  25308089.9204   25308094.7884   25308090.258
        34.5004         33.4004
 -18948890.34147 -14738463.39647  20925568.7074   20925567.0064   20925568.431
        47.7004         44.5004
 -21080782.64648 -15617955.07547  20569786.1544   20569787.0624   20569786.809
        48.6004         45.4004
   -148537.56846   -103358.23145  24477995.9904   24477999.5054   24477996.188
        38.2004         35.9004
 15  1  1  0  0 32.0000000  0 10G23G14G03G04G20G01G11G31G32G25
  -7394465.79546  -5563585.74746  23805708.0454   23805708.8074   23805710.032
        39.2004         36.9004
  -4562899.48746  -3533146.60445  23607217.4614   23607216.4304   23607217.523
        38.0004         35.5004
 -22064207.03847 -16948255.48047  21178895.1454   21178897.3554   21178894.869
        47.2004         44.2004
  -4456954.97946  -3201191.37346  24135189.2314   24135192.8064   24135190.435
        39.4004         36.9004
  -8688519.45046  -6746336.35246  22620874.2864   22620874.7964   22620875.016
        40.1004         37.4004
  -8197512.24046  -6125028.98846  23109399.3074   23109402.4804   23109398.729
        40.4004         37.6004
   3458789.61045   3609927.13445  25308600.0154   25308604.5674   25308600.498
        34.5004         33.4004
 -18946859.35047 -14736880.80747  20925954.8134   20925953.8264   20925954.900
        47.7004         44.7004
 -21080043.70048 -15617379.27547  20569926.4724   20569927.3334   20569927.408
        48.6004         45.4004
   -145894.45346   -101298.65845  24478499.0414   24478502.4504   24478499.174
        38.0004         35.9004
 15  1  1  0  0 33.0000000  0 10G23G14G03G04G20G01G11G31G32G25
  -7397068.70046  -5565613.98446  23805213.5474   23805213.4954   23805214.750
        39.2004         36.9004
  -4560550.16946  -3531315.96645  23607664.5204   23607663.4084   23607664.583
        38.0004         35.7004
 -22066146.16147 -16949766.48447  21178526.3334   21178528.3454   21178525.824
        47.2004         44.2004
  -4453810.70346  -3198741.29346  24135788.1664   24135791.8074   24135788.760
        39.4004         36.9004
  -8691359.21046  -6748549.15146  22620333.8534   22620334.7174   22620334.523
        40.1004         37.6004
  -8195306.61846  -6123310.32346  23109819.3944   23109822.7234   23109818.346
        40.4004         37.8004
   3461471.07745   3612016.58545  25309109.6864   25309115.5684   25309110.711
        34.5004         33.4004
 -18944827.98647 -14735297.92547  20926341.5374   20926340.3134   20926341.461
        47.7004         44.5004
 -21079304.22148 -15616803.05547  20570067.3594   20570068.4154   20570068.107
        48.6004         45.6004
   -143250.88446    -99238.73445  24479001.8964   24479005.6054   24479002.188
        38.2004         35.9004
 15  1  1  0  0 34.0000000  0 10G23G14G03G04G20G01G11G31G32G25
  -7399671.56846  -5567642.18546  23804718.1364   23804718.0004   23804719.453
        39.2004         36.7004
  -4558200.72346  -3529485.22645  23608111.2934   23608110.8484   23608111.608
        38.0004         35.7004
 -22068084.81047 -16951277.11947  21178157.6834   21178159.4854   21178156.893
        47.2004         44.2004
  -4450666.36446  -3196291.15746  24136387.4224   24136390.7844   24136387.030
        39.4004         37.1004
  -8694198.62046  -6750761.67646  22619793.4124   22619794.7424   22619794.161
        40.1004         37.6004
  -8193100.61946  -6121591.36046  23110239.5054   23110241.8694   23110238.095
        40.4004         37.4004
   3464152.56445   3614106.05445  25309619.4764   25309626.8544   25309621.011
        34.5004         33.3004
 -18942796.25347 -14733714.75747  20926728.4714   20926727.1064   20926728.090
        47.7004         44.5004
 -21078564.21148 -15616226.42247  20570208.2004   20570209.2344   20570208.894
        48.6004         45.6004
   -140606.86746    -97178.45745  24479505.0044   24479508.3974   24479505.339
        38.2004         35.9004
 15  1  1  0  0 35.0000000  0 10G23G14G03G04G20G01G11G31G32G25
  -7402274.43746  -5569670.39946  23804223.5834   23804223.4484   23804224.073
        39.2004         36.7004
  -4555851.17846  -3527654.41545  23608558.2254   23608558.4654   23608558.741
        38.0004         35.7004
 -22070022.98147 -16952787.38047  21177789.0394   21177790.5384   21177788.077
        47.2004         44.2004
  -4447521.96346  -3193840.97746  24136985.5454   24136988.6564   24136985.374
        39.4004         36.9004
  -8697037.69546  -6752973.93946  22619252.8044   22619254.8224   22619253.880
        40.1004         37.6004
  -8190894.25046  -6119872.11546  23110658.9144   23110662.7044   23110657.909
        40.4004         37.6004
   3466833.97845   3616195.46745  25310128.5204   25310136.4694   25310131.288
        34.5004         33.3004
 -18940764.16447 -14732131.31247  20927115.2754   20927113.6794   20927114.774
        47.5004         44.5004
 -21077823.66548 -15615649.37447  20570349.2214   20570350.1984   20570349.806
        48.6004         45.6004
   -137962.41746    -95117.84345  24480008.4074   24480011.4274   24480008.570
        38.2004         35.9004
 15  1  1  0  0 36.0000000  0 10G23G14G03G04G20G01G11G31G32G25
  -7404877.27446  -5571698.57746  23803728.5844   23803726.8234   23803728.701
        39.2004         36.6004
  -4553501.52646  -3525823.51545  23609005.0664   23609006.0474   23609005.840
        38.0004         35.7004
 -22071960.66947 -16954297.26647  21177420.1274   21177421.4034   21177419.374
        47.2004         44.2004
  -4444377.52546  -3191390.76046  24137583.9554   24137586.6374   24137583.715
        39.4004         36.9004
  -8699876.41046  -6755185.92446  22618713.7054   22618714.1554   22618713.685
        40.1004         37.6004
  -8188687.48646  -6118152.55746  23111078.1894   23111082.4324   23111077.854
        40.4004         37.6004
   3469515.33045   3618284.83445  25310639.8874   25310645.8574   25310641.538
        34.5004         33.4004
 -18938731.71547 -14730547.58447  20927501.4024   20927500.1684   20927501.538
        47.5004         44.5004
 -21077082.58748 -15615071.91347  20570490.1104   20570491.0004   20570490.813
        48.6004         45.6004
   -135317.49846    -93056.86545  24480511.9514   24480515.0174   24480511.925
        38.2004         35.9004
 15  1  1  0  0 37.0000000  0 10G23G14G03G04G20G01G11G31G32G25
  -7407480.07046  -5573726.72246  23803233.0314   23803231.4284   23803233.476
        39.2004         36.6004
  -4551151.76546  -3523992.53345  23609452.2304   23609452.6454   23609453.095
        38.0004         35.7004
 -22073897.88547 -16955806.78347  21177051.1714   21177053.2094   21177050.706
        47.2004         44.2004
  -4441233.03046  -3188940.50946  24138182.1644   24138185.0354   24138182.076
        39.4004         36.7004
  -8702714.77946  -6757397.63846  22618172.7204   22618174.1734   22618173.546
        40.1004         37.6004
  -8186480.34146  -6116432.70246  23111498.0314   23111502.5054   23111497.812
        40.4004         37.6004
   3472196.65245   3620374.17445  25311150.4504   25311155.8744   25311152.014
        34.5004         33.4004
 -18936698.89847 -14728963.57247  20927888.5474   20927887.0064   20927888.384
        47.5004         44.5004
 -21076340.97048 -15614494.03147  20570631.2484   20570631.9284   20570631.942
        48.6004         45.6004
   -132672.14746    -90995.55345  24481015.5334   24481019.1874   24481015.410
        38.2004         35.9004
 15  1  1  0  0 38.0000000  0 10G23G14G03G04G20G01G11G31G32G25
  -7410082.85346  -5575754.86246  23802738.0294   23802736.1594   23802738.201
        39.2004         36.6004
  -4548801.88446  -3522161.46145  23609899.0404   23609899.4474   23609900.264
        38.0004         35.7004
 -22075834.61047 -16957315.91747  21176682.7724   21176684.6564   21176682.210
        47.2004         44.2004
  -4438088.49346  -3186490.22146  24138780.5594   24138783.0614   24138780.428
        39.4004         36.7004
  -8705552.81646  -6759609.09646  22617632.8204   22617633.3834   22617633.547
        40.1004         37.6004
  -8184272.82546  -6114712.56246  23111918.1774   23111922.6314   23111917.814
        40.4004         37.8004
   3474877.95845   3622463.50245  25311660.9064   25311666.1894   25311662.412
        34.5004         33.4004
 -18934665.71347 -14727379.26847  20928275.4514   20928274.2794   20928275.274
        47.5004         44.5004
 -21075598.83248 -15613915.73947  20570772.5854   20570773.1174   20570773.168
        48.6004         45.6004
   -130026.34746    -88933.88845  24481519.0504   24481522.3534   24481518.925
        38.2004         35.9004
 15  1  1  0  0 39.0000000  0 10G23G14G03G04G20G01G11G31G32G25
  -7412685.60646  -5577782.97446  23802242.7144   23802241.4454   23802242.896
        39.2004         36.4004
  -4546451.90146  -3520330.30845  23610345.5994   23610347.0504   23610347.460
        38.0004         35.5004
 -22077770.85847 -16958824.68047  21176314.0404   21176316.4694   21176313.761
        47.2004         44.2004
  -4434943.90646  -3184039.89346  24139378.5524   24139381.6704   24139378.812
        39.4004         37.1004
  -8708390.49846  -6761820.27046  22617093.2244   22617093.6494   22617093.514
        40.1004         37.6004
  -8182064.93446  -6112992.12946  23112338.2124   23112342.4954   23112337.975
        40.4004         37.8004
   3477559.22545   3624552.80245  25312171.7394   25312176.0664   25312172.705
        34.7004         33.4004
 -18932632.17347 -14725794.69247  20928662.5014   20928661.1524   20928662.258
        47.5004         44.5004
 -21074856.15748 -15613337.03147  20570913.8354   20570914.7654   20570914.482
        48.6004         45.6004
   -127380.07346    -86871.85645  24482022.4184   24482026.1604   24482022.552
        38.2004         35.9004
 15  1  1  0  0 40.0000000  0 10G23G14G03G04G20G01G11G31G32G25
  -7415288.33946  -5579811.07646  23801747.8464   23801746.6414   23801747.606
        39.2004         36.7004
  -4544101.81546  -3518499.07345  23610793.1274   23610794.1224   23610794.730
        38.0004         35.7004
 -22079706.62947 -16960333.07047  21175945.6374   21175948.0494   21175945.426
        47.2004         44.2004
  -4431799.28046  -3181589.53846  24139976.8864   24139980.3174   24139977.256
        39.4004         36.9004
  -8711227.83746  -6764031.17846  22616553.5134   22616554.0594   22616553.651
        40.1004         37.6004
  -8179856.66146  -6111271.39746  23112758.4094   23112763.0454   23112758.171
        40.4004         37.8004
   3480240.41645   3626642.03745  25312682.5684   25312686.0904   25312683.065
        34.7004         33.4004
 -18930598.27547 -14724209.83647  20929049.4724   20929048.0774   20929049.286
        47.5004         44.7004
 -21074112.95348 -15612757.91047  20571055.2554   20571056.0284   20571055.890
        48.6004         45.6004
   -124733.37446    -84809.49145  24482526.1724   24482529.8364   24482526.107
        38.2004         35.9004
 15  1  1  0  0 41.0000000  0 10G23G14G03G04G20G01G11G31G32G25
  -7417891.05246  -5581839.16546  23801251.9314   23801251.2634   23801252.299
        39.2004         36.9004
  -4541751.63046  -3516667.76145  23611240.4624   23611240.9644   23611241.912
        38.0004         35.5004
 -22081641.90847 -16961841.07847  21175577.9054   21175579.6994   21175577.174
        47.2004         44.2004
  -4428654.59146  -3179139.12746  24140574.9504   24140578.7664   24140575.648
        39.4004         36.7004
  -8714064.83646  -6766241.82646  22616014.1584   22616014.1244   22616013.830
        40.1004         37.6004
  -8177648.00146  -6109550.36546  23113178.9364   23113183.8694   23113178.479
        40.4004         37.8004
   3482921.60045   3628731.27245  25313191.8044   25313197.0014   25313193.320
        34.7004         33.4004
 -18928564.01447 -14722624.69847  20929436.6324   20929435.2704   20929436.372
        47.7004         44.7004
 -21073369.22248 -15612178.37847  20571196.6124   20571197.6324   20571197.402
        48.6004         45.4004
   -122086.21646    -82746.77045  24483029.4694   24483033.4204   24483029.693
        38.2004         35.9004
 15  1  1  0  0 42.0000000  0 10G23G14G03G04G20G01G11G31G32G25
  -7420493.75146  -5583867.24146  23800756.2064   23800756.4914   23800756.982
        39.2004         36.9004
  -4539401.32146  -3514836.35245  23611687.6314   23611688.6434   23611689.196
        38.0004         35.7004
 -22083576.71547 -16963348.72047  21175209.4994   21175211.3374   21175209.000
        47.2004         44.4004
  -4425509.86446  -3176688.70146  24141174.0114   24141177.2564   24141174.013
        39.4004         36.6004
  -8716901.47246  -6768452.18346  22615474.2264   22615474.0884   22615473.992
        40.1004         37.6004
  -8175438.97946  -6107829.05346  23113599.4454   23113604.6374   23113598.777
        40.4004         37.8004
   3485602.74845   3630820.47545  25313702.5384   25313706.1384   25313703.639
        34.7004         33.6004
 -18926529.39147 -14721039.27947  20929823.7224   20929822.5094   20929823.514
        47.7004         44.7004
 -21072624.94348 -15611598.42147  20571338.3324   20571339.0184   20571339.025
        48.6004         45.6004
   -119438.60646    -80683.69645  24483532.9744   24483537.3414   24483533.449
        38.0004         35.9004
 15  1  1  0  0 43.0000000  0 10G23G14G03G04G20G01G11G31G32G25
  -7423096.40546  -5585895.27846  23800260.6344   23800260.7794   23800261.715
        39.2004         36.7004
  -4537050.91746  -3513004.86945  23612134.7504   23612135.6244   23612136.527
        38.0004         35.7004
 -22085511.04047 -16964855.98747  21174841.5504   21174843.1894   21174840.946
        47.2004         44.2004
  -4422365.07946  -3174238.22346  24141772.5224   24141775.3984   24141772.459
        39.4004         36.6004
  -8719737.77546  -6770662.28946  22614934.2794   22614934.4184   22614934.334
        40.3004         37.4004
  -8173229.55946  -6106107.42746  23114019.6614   23114024.3134   23114019.136
        40.4004         37.6004
   3488283.85045   3632909.64445  25314212.6264   25314217.0924   25314213.862
        34.7004         33.6004
 -18924494.39647 -14719453.56847  20930210.7834   20930209.7804   20930210.753
        47.7004         44.7004
 -21071880.13848 -15611018.05247  20571480.0664   20571480.8984   20571480.761
        48.6004         45.4004
   -116790.56346    -78620.28645  24484036.8454   24484040.9274   24484037.220
        38.0004         35.7004
 15  1  1  0  0 44.0000000  0 10G23G14G03G04G20G01G11G31G32G25
  -7425699.04046  -5587923.29746  23799764.7534   23799765.0354   23799766.471
        39.2004         36.7004
  -4534700.39346  -3511173.28945  23612582.2844   23612582.4724   23612583.798
        38.0004         35.7004
 -22087444.88647 -16966362.88047  21174473.1604   21174475.2094   21174472.938
        47.2004         44.2004
  -4419220.25246  -3171787.70946  24142371.2764   24142373.7234   24142370.908
        39.4004         36.7004
  -8722573.73646  -6772872.12946  22614394.0954   22614395.6504   22614394.710
        40.1004         37.6004
  -8171019.75946  -6104385.50446  23114440.2734   23114444.4234   23114439.680
        40.4004         37.8004
   3490964.89945   3634998.77445  25314722.6144   25314726.7364   25314724.091
        34.9004         33.6004
 -18922459.05147 -14717867.58647  20930598.2354   20930597.2154   20930598.068
        47.7004         44.7004
 -21071134.81348 -15610437.28147  20571622.0414   20571622.8474   20571622.599
        48.6004         45.6004
   -114142.05846    -76556.51545  24484540.6624   24484544.9914   24484541.139
        38.0004         35.7004
 15  1  1  0  0 45.0000000  0 10G23G14G03G04G20G01G11G31G32G25
  -7428301.66246  -5589951.31346  23799268.6814   23799269.5074   23799271.194
        39.2004         36.9004
  -4532349.77546  -3509341.64045  23613029.4054   23613030.2184   23613031.151
        38.0004         35.7004
 -22089378.26047 -16967869.40347  21174105.3814   21174107.3434   21174105.040
        47.2004         44.2004
  -4416075.38246  -3169337.16346  24142969.5614   24142971.9734   24142969.349
        39.4004         36.9004
  -8725409.35946  -6775081.70946  22613853.8804   22613856.5204   22613855.020
        40.3004         37.6004
  -8168809.59146  -6102663.29646  23114860.7014   23114865.4414   23114860.271
        40.4004         37.6004
   3493645.92145   3637087.88345  25315233.7994   25315235.7584   25315234.343
        34.7004         33.6004
 -18920423.33847 -14716281.31847  20930985.5334   20930984.6164   20930985.433
        47.7004         44.5004
 -21070388.94448 -15609856.08447  20571763.9524   20571764.5724   20571764.530
        48.6004         45.6004
   -111493.12446    -74492.40945  24485044.9414   24485049.1324   24485045.259
        38.0004         35.7004
 15  1  1  0  0 46.0000000  0 10G23G14G03G04G20G01G11G31G32G25
  -7430904.24446  -5591979.30046  23798773.9144   23798775.0394   23798775.906
        39.2004         36.9004
  -4529999.02246  -3507509.88345  23613477.2334   23613477.8944   23613478.521
        38.0004         35.5004
 -22091311.13847 -16969375.53747  21173737.4314   21173739.3424   21173737.220
        47.2004         44.4004
  -4412930.44746  -3166886.56746  24143568.3924   24143570.4494   24143567.879
        39.4004         36.7004
  -8728244.62746  -6777291.00746  22613313.9524   22613316.5974   22613315.454
        40.3004         37.6004
  -8166599.04646  -6100940.79246  23115281.2814   23115285.8724   23115280.916
        40.3004         37.8004
   3496326.90545   3639176.96145  25315744.1154   25315746.1874   25315744.519
        34.7004         33.6004
 -18918387.26447 -14714694.76447  20931372.9994   20931371.7504   20931372.861
        47.7004         44.5004
 -21069642.54548 -15609274.47347  20571906.0194   20571906.6564   20571906.575
        48.6004         45.4004
   -108843.72746    -72427.94245  24485549.3834   24485553.0044   24485549.496
        38.0004         35.7004
 15  1  1  0  0 47.0000000  0 10G23G14G03G04G20G01G11G31G32G25
  -7433506.80846  -5594007.26746  23798279.2984   23798279.7984   23798280.566
        39.2004         36.9004
  -4527648.19146  -3505678.06345  23613924.4644   23613925.2854   23613925.851
        38.0004         35.5004
 -22093243.53647 -16970881.30147  21173369.8304   21173371.8774   21173369.491
        47.2004         44.4004
  -4409785.47246  -3164435.93546  24144167.6474   24144169.2544   24144166.338
        39.4004         36.9004
  -8731079.55246  -6779500.04246  22612774.7074   22612777.5124   22612775.922
        40.3004         37.6004
  -8164388.09746  -6099217.97846  23115701.8454   23115706.5854   23115701.716
        40.3004         37.6004
   3499007.82845   3641265.99045  25316254.0954   25316256.2974   25316254.718
        34.7004         33.6004
 -18916350.82347 -14713107.92547  20931760.5094   20931759.2874   20931760.373
        47.7004         44.7004
 -21068895.60348 -15608692.44147  20572048.1614   20572048.7684   20572048.682
        48.6004         45.4004
   -106193.87846    -70363.12545  24486053.3404   24486057.5004   24486053.834
        38.0004         35.7004
 15  1  1  0  0 48.0000000  0 10G23G14G03G04G20G01G11G31G32G25
  -7436109.35046  -5596035.22146  23797785.8044   23797784.3194   23797785.234
        39.2004         36.7004
  -4525297.23146  -3503846.14445  23614371.6684   23614372.2644   23614373.134
        38.0004         35.5004
 -22095175.46147 -16972386.69847  21173001.9684   21173004.3194   21173001.834
        47.2004         44.4004
  -4406640.45046  -3161985.26946  24144765.7704   24144767.3204   24144764.792
        39.4004         36.9004
  -8733914.12946  -6781708.80346  22612235.9464   22612237.6324   22612236.453
        40.3004         37.4004
  -8162176.79346  -6097494.88546  23116122.8094   23116127.2944   23116122.542
        40.3004         37.6004
   3501688.71445   3643354.99145  25316764.0584   25316766.8084   25316764.751
        34.9004         33.6004
 -18914314.01247 -14711520.80047  20932148.1434   20932147.2864   20932147.977
        47.7004         44.5004
 -21068148.14648 -15608110.00347  20572190.5454   20572191.1444   20572190.931
        48.6004         45.6004
   -103543.60846    -68297.97945  24486557.7464   24486561.5624   24486558.210
        38.0004         35.7004
 15  1  1  0  0 49.0000000  0 10G23G14G03G04G20G01G11G31G32G25
  -7438711.85546  -5598063.14046  23797291.5344   23797289.3774   23797290.023
        39.2004         36.7004
  -4522946.17246  -3502014.14945  23614819.1804   23614819.7374   23614820.549
        38.0004         35.7004
 -22097106.90347 -16973891.71447  21172634.6944   21172636.7564   21172634.298
        47.2004         44.4004
  -4403495.38046  -3159534.56446  24145364.5854   24145365.6594   24145363.334
