     2.11           OBSERVATION DATA    G (GPS)             RINEX VERSION / TYPE
teqc  2013Mar15     gpsops              20150101 00:42:04UTCPGM / RUN BY / DATE
Linux 2.4.21-27.ELsmp|Opteron|gcc -static|Linux x86_64|=+   COMMENT
BIT 2 OF LLI FLAGS DATA COLLECTED UNDER A/S CONDITION       COMMENT
FAIR                                                        MARKER NAME
40408M001                                                   MARKER NUMBER
GGN                 JPL                                     OBSERVER / AGENCY
IR2200709003        ASHTECH UZ-12       CQ00                REC # / TYPE / VERS
CR5200348003        ASH701945G_M    JPLA                    ANT # / TYPE
 -2281621.7717 -1453595.9493  5756961.9444                  APPROX POSITION XYZ
        0.0863        0.0000        0.0000                  ANTENNA: DELTA H/E/N
     1     1                                                WAVELENGTH FACT L1/2
     7    L1    L2    P1    P2    C1    S1    S2            # / TYPES OF OBSERV
     1.0000                                                 INTERVAL
                                                            COMMENT
This data is provided as a public service by NASA/JPL.      COMMENT
No warranty is expressed or implied regarding suitability   COMMENT
for use.  For further information, contact:                 COMMENT
Dave Stowers, NASA/JPL m/s 238-600                          COMMENT
4800 Oak Grove Drive, Pasadena CA 91109 USA                 COMMENT
                                                            COMMENT
 SNR is mapped to RINEX snr flag value [0-9]                COMMENT
  L1 & L2: min(max(int(snr_dBHz/6), 0), 9)                  COMMENT
pseudorange smoothing corrections not applied               COMMENT
  2015     1     1     0     0    0.0000000     GPS         TIME OF FIRST OBS
                                                            END OF HEADER
 15  1  1  0  0  0.0000000  0 10G25G17G32G01G20G09G23G06G03G31
  -4210806.21747  -3254732.93246  23580892.1024   23580897.7534   23580891.839
        45.0004         40.0004
  -2861663.91447  -2191474.49946  24260332.4874   24260339.7154   24260332.018
        44.0004         40.0004
  -7047304.74648  -5471571.68447  22585106.0034   22585111.9154   22585107.752
        50.0004         45.0004
  -6926735.02947  -5344155.32246  23640108.4114   23640116.5454   23640108.234
        45.0004         41.0004
 -25142177.77449 -19528316.93148  20394842.0164   20394846.5544   20394842.416
        55.0004         51.0004
  -1208762.15447   -929017.86746  24124019.6934   24124029.4474   24124020.996
        43.0004         39.0004
 -16430675.71848 -12744758.61848  21939726.8264   21939729.3244   21939726.696
        52.0004         48.0004
   -999269.55148   -771301.03447  22603836.0184   22603843.6384   22603834.905
        49.0004         45.0004
 -20613237.26049 -15989593.19548  20423198.3094   20423204.7274   20423197.655
        57.0004         52.0004
 -12511416.57048  -9740954.44248  21722816.6814   21722820.0474   21722815.749
        53.0004         49.0004
 15  1  1  0  0  1.0000000  0 10G25G17G32G01G20G09G23G06G03G31
  -4210337.67147  -3254367.83246  23580980.4254   23580987.1934   23580980.781
        45.0004         40.0004
  -2858817.94947  -2189256.86746  24260874.7354   24260881.3414   24260873.467
        44.0004         40.0004
  -7044210.57548  -5469160.63247  22585695.0014   22585701.1394   22585696.481
        50.0004         46.0004
  -6923028.85047  -5341267.39546  23640813.9004   23640821.3594   23640813.570
        45.0004         41.0004
 -25142898.02949 -19528878.16548  20394704.6634   20394709.4994   20394705.439
        55.0004         51.0004
  -1212474.41647   -931910.53646  24123312.7624   24123322.0334   24123314.602
        43.0004         39.0004
 -16433323.62348 -12746821.91248  21939223.0414   21939225.2564   21939222.839
        52.0004         48.0004
  -1001569.39048   -773093.11047  22603397.9024   22603406.1814   22603397.269
        49.0004         45.0004
 -20612454.52449 -15988983.26748  20423347.0184   20423353.5784   20423346.553
        57.0004         52.0004
 -12510561.20748  -9740287.92248  21722979.2274   21722983.2614   21722978.615
        53.0004         49.0004
 15  1  1  0  0  2.0000000  0 10G25G17G32G01G20G09G23G06G03G31
  -4209868.55147  -3254002.28346  23581069.2734   23581077.3274   23581069.760
        45.0004         40.0004
  -2855971.70647  -2187039.01846  24261416.4344   24261423.3164   24261415.048
        44.0004         40.0004
  -7041116.24848  -5466749.46947  22586284.6994   22586289.9974   22586285.283
        50.0004         46.0004
  -6919322.55447  -5338379.37646  23641518.8844   23641526.9444   23641518.745
        45.0004         41.0004
 -25143617.78849 -19529439.01348  20394567.8984   20394572.6314   20394568.541
        55.0004         51.0004
  -1216186.63447   -934803.17046  24122606.1964   24122615.9374   24122607.934
        43.0004         39.0004
 -16435971.27348 -12748885.00848  21938719.1454   21938721.5514   21938719.060
        52.0004         48.0004
  -1003868.82248   -774884.86947  22602960.7684   22602968.8914   22602959.813
        49.0004         45.0004
 -20611671.32349 -15988372.97848  20423496.1344   20423502.6424   20423495.560
        57.0004         52.0004
 -12509705.29548  -9739620.97348  21723142.4724   21723146.0914   21723141.552
        53.0004         49.0004
 15  1  1  0  0  3.0000000  0 10G25G17G32G01G20G09G23G06G03G31
  -4209398.94547  -3253636.35546  23581158.8714   23581167.0424   23581158.824
        45.0004         40.0004
  -2853125.37847  -2184821.10346  24261958.2484   24261965.0104   24261956.644
        44.0004         40.0004
  -7038021.88748  -5464338.28247  22586873.2984   22586878.4554   22586874.152
        50.0004         46.0004
  -6915616.29947  -5335491.38746  23642224.0154   23642232.3934   23642224.076
        45.0004         41.0004
 -25144337.18649 -19529999.58248  20394431.0094   20394435.5324   20394431.655
        55.0004         51.0004
  -1219898.92947   -937695.86246  24121899.4044   24121909.2974   24121901.138
        43.0004         39.0004
 -16438618.79048 -12750948.00448  21938214.6284   21938217.9124   21938215.225
        52.0004         48.0004
  -1006167.95948   -776676.40547  22602523.7424   22602531.1344   22602522.300
        49.0004         45.0004
 -20610887.77449 -15987762.42248  20423645.3394   20423651.8194   20423644.663
        57.0004         52.0004
 -12508848.94248  -9738953.68548  21723305.3094   21723308.7014   21723304.607
        53.0004         49.0004
 15  1  1  0  0  4.0000000  0 10G25G17G32G01G20G09G23G06G03G31
  -4208928.54647  -3253269.80846  23581248.1244   23581256.0624   23581248.053
        45.0004         40.0004
  -2850278.64247  -2182602.87046  24262499.3944   24262506.4824   24262498.363
        44.0004         40.0004
  -7034927.15648  -5461926.80147  22587462.4464   22587468.2584   22587463.073
        50.0004         46.0004
  -6911909.74447  -5332603.16446  23642929.0834   23642937.1874   23642929.307
        45.0004         41.0004
 -25145055.89949 -19530559.61748  20394294.2614   20394298.9814   20394294.890
        55.0004         51.0004
  -1223611.02247   -940588.39446  24121192.8104   24121202.6904   24121194.394
        44.0004         39.0004
 -16441265.85948 -12753010.65248  21937711.6224   21937714.5224   21937711.544
        52.0004         48.0004
  -1008466.49248   -778467.47647  22602085.2144   22602093.4714   22602084.994
        49.0004         45.0004
 -20610103.56849 -15987151.35348  20423794.5934   20423801.0354   20423793.915
        57.0004         52.0004
 -12507991.82948  -9738285.80448  21723468.2644   21723472.0174   21723467.792
        53.0004         49.0004
 15  1  1  0  0  5.0000000  0 10G25G17G32G01G20G09G23G06G03G31
  -4208456.82247  -3252902.22946  23581337.7974   23581346.4474   23581337.592
        45.0004         40.0004
  -2847430.88447  -2180383.83646  24263040.9314   24263048.3794   24263040.371
        44.0004         40.0004
  -7031831.51248  -5459514.61047  22588051.0854   22588056.8694   22588052.163
        50.0004         46.0004
  -6908202.33847  -5329714.27946  23643634.2304   23643643.2084   23643634.522
        45.0004         41.0004
 -25145773.36549 -19531118.68448  20394157.6614   20394162.4424   20394158.335
        55.0004         51.0004
  -1227322.33247   -943480.31846  24120486.7854   24120496.5134   24120487.954
        44.0004         39.0004
 -16443911.92148 -12755072.51648  21937208.0494   21937210.5024   21937208.063
        52.0004         48.0004
  -1010763.86048   -780257.63247  22601649.0594   22601656.4144   22601647.876
        49.0004         45.0004
 -20609318.13549 -15986539.33148  20423944.0744   20423950.3754   20423943.397
        57.0004         52.0004
 -12507133.40748  -9737616.90748  21723631.2924   21723635.4794   21723631.249
        53.0004         49.0004
 15  1  1  0  0  6.0000000  0 10G25G17G32G01G20G09G23G06G03G31
  -4207984.79547  -3252534.41346  23581427.8124   23581436.3054   23581427.174
        45.0004         40.0004
  -2844583.20747  -2178164.86946  24263582.7724   24263590.0954   24263582.355
        44.0004         40.0004
  -7028735.99448  -5457102.51747  22588640.8574   22588645.5834   22588641.259
        50.0004         46.0004
  -6904495.14247  -5326825.55746  23644340.2334   23644349.0674   23644340.121
        45.0004         41.0004
 -25146490.64349 -19531677.60448  20394021.1224   20394025.8184   20394021.825
        55.0004         51.0004
  -1231033.87947   -946372.42846  24119781.0614   24119790.1624   24119781.683
        44.0004         39.0004
 -16446558.02148 -12757134.41048  21936704.6034   21936707.0684   21936704.559
        52.0004         48.0004
  -1013061.11448   -782047.69647  22601211.9264   22601219.6854   22601210.688
        49.0004         45.0004
 -20608532.54349 -15985927.18348  20424093.5254   20424099.8714   20424092.905
        57.0004         52.0004
 -12506274.71548  -9736947.79848  21723794.9854   21723798.7004   21723794.581
        53.0004         49.0004
 15  1  1  0  0  7.0000000  0 10G25G17G32G01G20G09G23G06G03G31
  -4207511.76147  -3252165.81146  23581517.5434   23581526.4814   23581517.071
        45.0004         40.0004
  -2841734.92147  -2175945.42546  24264124.3884   24264131.2114   24264124.119
        44.0004         40.0004
  -7025639.92148  -5454689.98847  22589229.3774   22589235.0244   22589230.337
        50.0004         46.0004
  -6900787.45247  -5323936.45046  23645045.3224   23645054.2794   23645045.495
        45.0004         41.0004
 -25147207.01649 -19532235.81348  20393884.8074   20393889.7034   20393885.471
        55.0004         51.0004
  -1234745.02947   -949264.22646  24119075.6654   24119084.4264   24119075.678
        44.0004         39.0004
 -16449203.46548 -12759195.78648  21936201.0804   21936203.8484   21936201.190
        52.0004         48.0004
  -1015357.53748   -783837.11847  22600774.2254   22600781.5724   22600773.703
        49.0004         45.0004
 -20607746.06949 -15985314.34048  20424243.1844   20424249.5374   20424242.626
        57.0004         52.0004
 -12505415.05548  -9736277.92948  21723958.6174   21723962.5794   21723958.134
        53.0004         49.0004
 15  1  1  0  0  8.0000000  0 10G25G17G32G01G20G09G23G06G03G31
  -4207037.98547  -3251796.63346  23581608.1984   23581616.4734   23581606.989
        45.0004         40.0004
  -2838886.18547  -2173725.63446  24264666.0174   24264673.2764   24264665.957
        45.0004         40.0004
  -7022543.48448  -5452277.17647  22589818.2334   22589824.0254   22589819.582
        50.0004         46.0004
  -6897079.45447  -5321047.10646  23645750.7334   23645759.3124   23645750.917
        45.0004         41.0004
 -25147922.72049 -19532793.50448  20393748.5164   20393753.3234   20393749.208
        55.0004         51.0004
  -1238455.94947   -952155.84846  24118369.0994   24118378.1834   24118369.447
        43.0004         39.0004
 -16451848.46848 -12761256.82448  21935697.5704   21935700.7764   21935697.822
        52.0004         48.0004
  -1017653.36548   -785626.07447  22600337.2914   22600345.7004   22600336.804
        49.0004         45.0004
 -20606958.95849 -15984701.00548  20424393.0204   20424399.2884   20424392.441
        57.0004         52.0004
 -12504554.66848  -9735607.49748  21724122.3644   21724126.3154   21724121.869
        53.0004         49.0004
 15  1  1  0  0  9.0000000  0 10G25G17G32G01G20G09G23G06G03G31
  -4206564.01547  -3251427.30446  23581698.0234   23581706.4714   23581697.018
        45.0004         40.0004
  -2836037.65647  -2171506.00446  24265209.0114   24265215.4924   24265207.768
        44.0004         40.0004
  -7019447.30348  -5449864.56647  22590408.2704   22590413.4684   22590408.712
        50.0004         46.0004
  -6893371.77947  -5318158.01246  23646457.0144   23646464.2844   23646456.361
        45.0004         41.0004
 -25148638.33149 -19533351.12248  20393612.3564   20393617.2104   20393613.014
        55.0004         51.0004
  -1242167.25247   -955047.76846  24117662.8624   24117672.4854   24117663.313
        44.0004         39.0004
 -16454493.61948 -12763317.97748  21935193.9894   21935196.9484   21935194.302
        52.0004         48.0004
  -1019949.19548   -787415.03147  22599900.4524   22599908.8744   22599899.932
        49.0004         45.0004
 -20606171.77949 -15984087.61948  20424542.6514   20424549.0994   20424542.234
        57.0004         52.0004
 -12503694.11148  -9734936.93448  21724286.3254   21724289.5584   21724285.646
        53.0004         49.0004
 15  1  1  0  0 10.0000000  0 10G25G17G32G01G20G09G23G06G03G31
  -4206089.27047  -3251057.36746  23581788.8304   23581797.1414   23581787.267
        45.0004         40.0004
  -2833188.69547  -2169286.03946  24265750.3254   24265757.9684   24265749.576
        44.0004         40.0004
  -7016350.77148  -5447451.68447  22590997.1774   22591002.7304   22590997.875
        50.0004         46.0004
  -6889663.81147  -5315268.69146  23647162.2164   23647170.2214   23647161.876
        45.0004         41.0004
 -25149353.27749 -19533908.22248  20393476.6424   20393481.1964   20393476.906
        55.0004         51.0004
  -1245878.34147   -957939.51946  24116956.7154   24116966.4584   24116957.217
        43.0004         39.0004
 -16457138.33748 -12765378.78748  21934691.2734   21934693.6104   21934690.897
        52.0004         48.0004
  -1022244.41948   -789203.51247  22599464.0334   22599471.7744   22599463.148
        49.0004         45.0004
 -20605383.94849 -15983473.72148  20424692.6924   20424698.9804   20424692.197
        57.0004         52.0004
 -12502832.81748  -9734265.79548  21724450.0454   21724453.9834   21724449.516
        53.0004         49.0004
 15  1  1  0  0 11.0000000  0 10G25G17G32G01G20G09G23G06G03G31
  -4205613.99047  -3250687.01546  23581879.0874   23581887.6924   23581877.603
        45.0004         40.0004
  -2830339.56647  -2167065.94146  24266292.7424   24266299.7044   24266291.744
        44.0004         40.0004
  -7013254.13548  -5445038.72347  22591586.2664   22591591.8634   22591587.154
        50.0004         46.0004
  -6885955.81647  -5312379.34746  23647868.1964   23647875.5624   23647867.510
        45.0004         41.0004
 -25150067.77949 -19534464.97748  20393340.4834   20393345.0944   20393340.898
        55.0004         51.0004
  -1249589.41747   -960831.26046  24116250.1444   24116260.3974   24116251.396
        43.0004         39.0004
 -16459782.84348 -12767439.43948  21934187.6894   21934190.6434   21934187.484
        52.0004         48.0004
  -1024539.27248   -790991.70747  22599027.3404   22599035.0844   22599026.576
        50.0004         45.0004
 -20604595.69949 -15982859.50148  20424842.6064   20424849.0394   20424842.248
        57.0004         52.0004
 -12501971.00948  -9733594.25548  21724614.1574   21724617.9044   21724613.515
        53.0004         49.0004
 15  1  1  0  0 12.0000000  0 10G25G17G32G01G20G09G23G06G03G31
  -4205137.65747  -3250315.84546  23581969.8034   23581978.8514   23581968.119
        45.0004         40.0004
  -2827489.75447  -2164845.31346  24266835.0004   24266842.2604   24266834.023
        44.0004         40.0004
  -7010156.87548  -5442625.27347  22592175.9294   22592181.7754   22592176.492
        50.0004         46.0004
  -6882247.24147  -5309489.55246  23648573.2434   23648581.6254   23648573.038
        45.0004         41.0004
 -25150781.33749 -19535020.99548  20393204.6734   20393209.2854   20393205.121
        55.0004         51.0004
  -1253300.07547   -963722.67446  24115544.6844   24115554.9364   24115545.711
        44.0004         39.0004
 -16462426.65048 -12769499.54248  21933684.7114   21933687.0444   21933684.340
        52.0004         48.0004
  -1026833.26148   -792779.23447  22598590.8284   22598598.4394   22598590.028
        50.0004         45.0004
 -20603806.53049 -15982244.56548  20424992.9164   20424999.2024   20424992.486
        57.0004         52.0004
 -12501108.19448  -9732921.93048  21724778.2044   21724782.2144   21724777.695
        53.0004         49.0004
 15  1  1  0  0 13.0000000  0 10G25G17G32G01G20G09G23G06G03G31
  -4204660.53447  -3249944.05746  23582060.4774   23582069.5004   23582059.064
        45.0004         40.0004
  -2824639.51847  -2162624.35446  24267377.3254   24267384.8794   24267376.946
        44.0004         40.0004
  -7007059.23848  -5440211.52947  22592765.5784   22592770.7934   22592765.857
        50.0004         46.0004
  -6878538.40247  -5306599.54946  23649278.1794   23649286.8624   23649278.604
        45.0004         40.0004
 -25151494.20449 -19535576.47848  20393069.2464   20393073.5394   20393069.457
        55.0004         51.0004
  -1257010.43547   -966613.85546  24114839.0954   24114848.8464   24114840.081
        44.0004         39.0004
 -16465069.99248 -12771559.28448  21933181.4714   21933184.4324   21933181.304
        52.0004         48.0004
  -1029126.63648   -794566.28147  22598154.3374   22598163.0384   22598153.529
        50.0004         45.0004
 -20603016.69549 -15981629.10948  20425143.0934   20425149.4444   20425142.784
        57.0004         52.0004
 -12500244.62348  -9732249.01648  21724942.3464   21724946.1554   21724941.969
        53.0004         49.0004
 15  1  1  0  0 14.0000000  0 10G25G17G32G01G20G09G23G06G03G31
  -4204183.00847  -3249571.95646  23582151.3364   23582160.5264   23582149.990
        45.0004         40.0004
  -2821789.21747  -2160403.34646  24267920.2054   24267927.5004   24267919.599
        44.0004         40.0004
  -7003961.62448  -5437797.80447  22593354.5294   22593360.0804   22593355.355
        50.0004         46.0004
  -6874829.62047  -5303709.59146  23649984.2644   23649991.9474   23649984.471
        45.0004         40.0004
 -25152206.76149 -19536131.71748  20392933.5104   20392938.0304   20392933.868
        55.0004         51.0004
  -1260720.98647   -969505.18946  24114133.2244   24114143.1054   24114134.538
        44.0004         39.0004
 -16467713.26348 -12773618.97448  21932678.5914   21932681.2864   21932678.239
        52.0004         48.0004
  -1031419.77148   -796353.13947  22597718.3074   22597725.0404   22597717.106
        50.0004         45.0004
 -20602226.57549 -15981013.43048  20425293.5274   20425299.8834   20425293.132
        57.0004         52.0004
 -12499380.67148  -9731575.80748  21725106.5514   21725110.6914   21725106.359
        53.0004         49.0004
 15  1  1  0  0 15.0000000  0 10G25G17G32G01G20G09G23G06G03G31
  -4203704.30247  -3249198.93546  23582241.9344   23582251.7954   23582241.082
        45.0004         40.0004
  -2818938.13847  -2158181.73146  24268463.5314   24268469.9734   24268462.412
        44.0004         40.0004
  -7000863.25548  -5435383.49147  22593944.6494   22593950.4384   22593944.915
        50.0004         46.0004
  -6871120.17247  -5300819.11446  23650690.3224   23650697.5584   23650690.447
        45.0004         40.0004
 -25152918.24349 -19536686.12048  20392798.0144   20392802.9724   20392798.508
        55.0004         51.0004
  -1264430.90747   -972396.02946  24113426.7364   24113436.6654   24113428.829
        44.0004         39.0004
 -16470355.69448 -12775678.00948  21932175.9214   21932178.4374   21932175.491
        52.0004         48.0004
  -1033711.91548   -798139.22147  22597282.2614   22597289.8144   22597280.938
        50.0004         45.0004
 -20601435.40249 -15980396.93448  20425444.0584   20425450.5434   20425443.697
        57.0004         52.0004
 -12498515.57348  -9730901.70648  21725271.5804   21725275.0824   21725270.916
        53.0004         49.0004
 15  1  1  0  0 16.0000000  0 10G25G17G32G01G20G09G23G06G03G31
  -4203224.66147  -3248825.18746  23582333.1484   23582342.9344   23582332.707
        45.0004         40.0004
  -2816086.46347  -2155959.64946  24269005.8974   24269012.4284   24269005.311
        44.0004         40.0004
  -6997764.38648  -5432968.78547  22594534.2274   22594540.4424   22594534.589
        50.0004         46.0004
  -6867410.27247  -5297928.28746  23651396.3694   23651403.9704   23651396.495
        45.0004         40.0004
 -25153628.89149 -19537239.87348  20392662.9174   20392667.5204   20392663.307
        55.0004         51.0004
  -1268140.45547   -975286.58046  24112720.7514   24112730.1194   24112723.136
        44.0004         39.0004
 -16472997.53548 -12777736.57948  21931673.2474   21931676.1424   21931672.853
        52.0004         48.0004
  -1036003.30648   -799924.72147  22596846.0494   22596854.0034   22596844.939
        50.0004         45.0004
 -20600643.42249 -15979779.80548  20425594.7634   20425601.0284   20425594.401
        57.0004         52.0004
 -12497649.58548  -9730226.90648  21725436.1034   21725439.9114   21725435.625
        53.0004         49.0004
 15  1  1  0  0 17.0000000  0 10G25G17G32G01G20G09G23G06G03G31
  -4202744.19947  -3248450.79846  23582424.3264   23582434.1354   23582424.163
        45.0004         40.0004
  -2813234.32647  -2153737.20946  24269548.4084   24269555.2114   24269548.044
        44.0004         40.0004
  -6994665.10848  -5430553.75947  22595124.1764   22595129.4224   22595124.327
        50.0004         46.0004
  -6863700.03447  -5295037.19546  23652102.5964   23652110.5144   23652102.787
        45.0004         40.0004
 -25154338.80449 -19537793.05048  20392527.6784   20392532.4464   20392528.236
        55.0004         51.0004
  -1271849.72647   -978176.91246  24112014.6334   24112023.7634   24112017.272
        44.0004         39.0004
 -16475638.87448 -12779794.76148  21931170.2984   21931173.2624   21931170.264
        52.0004         48.0004
  -1038294.04048   -801709.70947  22596409.9394   22596417.7764   22596409.123
        50.0004         45.0004
 -20599850.73249 -15979162.12248  20425745.8514   20425752.0724   20425745.236
        57.0004         52.0004
 -12496782.78748  -9729551.47648  21725601.0274   21725605.1464   21725600.560
        53.0004         49.0004
 15  1  1  0  0 18.0000000  0 10G25G17G32G01G20G09G23G06G03G31
  -4202263.48247  -3248076.21346  23582515.8354   23582526.2384   23582515.980
        45.0004         40.0004
  -2810382.30147  -2151514.85446  24270091.0044   24270097.2584   24270090.565
        44.0004         40.0004
  -6991566.02348  -5428138.88647  22595713.3404   22595719.4604   22595714.024
        50.0004         46.0004
  -6859990.05047  -5292146.29946  23652809.5394   23652816.7514   23652809.061
        45.0004         40.0004
 -25155048.56749 -19538346.11048  20392392.7384   20392397.3744   20392393.139
        55.0004         51.0004
  -1275559.33047   -981067.50646  24111308.6374   24111317.2764   24111311.421
        44.0004         39.0004
 -16478280.29948 -12781853.01148  21930667.8644   21930670.5234   21930667.738
        52.0004         48.0004
  -1040584.68448   -803494.62447  22595973.6514   22595981.8944   22595973.239
        50.0004         45.0004
 -20599057.92349 -15978544.34948  20425896.4284   20425902.9734   20425896.058
        57.0004         52.0004
 -12495915.77148  -9728875.87948  21725766.2114   21725769.7924   21725765.462
        53.0004         49.0004
 15  1  1  0  0 19.0000000  0 10G25G17G32G01G20G09G23G06G03G31
  -4201781.83547  -3247700.90246  23582607.2834   23582617.3524   23582607.591
        45.0004         40.0004
  -2807529.70847  -2149292.05846  24270633.8554   24270640.1524   24270633.072
        44.0004         40.0004
  -6988466.42448  -5425723.61547  22596303.2264   22596308.9824   22596303.733
        50.0004         46.0004
  -6856279.63347  -5289255.06346  23653515.2324   23653522.8924   23653515.469
        45.0004         40.0004
 -25155757.50149 -19538898.52348  20392257.9074   20392262.3824   20392258.272
        55.0004         51.0004
  -1279268.54047   -983957.79346  24110602.5034   24110611.8764   24110605.694
        44.0004         39.0004
 -16480921.12748 -12783910.79248  21930165.4644   21930168.1214   21930165.272
        52.0004         48.0004
  -1042874.57848   -805278.95447  22595538.2474   22595546.0424   22595537.516
        50.0004         45.0004
 -20598264.30149 -15977925.93948  20426047.5584   20426053.9534   20426047.012
        57.0004         52.0004
 -12495047.85648  -9728199.57748  21725931.0524   21725935.0224   21725930.613
        53.0004         49.0004
 15  1  1  0  0 20.0000000  0 10G25G17G32G01G20G09G23G06G03G31
  -4201299.41847  -3247324.99246  23582699.8944   23582708.7644   23582699.571
        45.0004         40.0004
  -2804676.67547  -2147068.91746  24271176.6504   24271182.8544   24271175.692
        44.0004         40.0004
  -6985366.48448  -5423308.07847  22596893.7934   22596899.2674   22596893.559
        50.0004         46.0004
  -6852568.91147  -5286363.58846  23654220.5944   23654228.3404   23654221.795
        45.0004         40.0004
 -25156465.75949 -19539450.41548  20392123.2034   20392127.6524   20392123.447
        55.0004         51.0004
  -1282977.55847   -986847.93046  24109896.6844   24109906.4354   24109900.003
        43.0004         39.0004
 -16483561.52748 -12785968.24348  21929662.4304   21929665.6474   21929662.938
        52.0004         48.0004
  -1045163.89148   -807062.83447  22595102.5584   22595110.9244   22595102.000
        50.0004         45.0004
 -20597470.02949 -15977307.02948  20426198.7564   20426205.2294   20426198.071
        57.0004         52.0004
 -12494179.20348  -9727522.70548  21726096.3264   21726100.6494   21726095.864
        53.0004         49.0004
 15  1  1  0  0 21.0000000  0 10G25G17G32G01G20G09G23G06G03G31
  -4200816.47547  -3246948.67046  23582790.8104   23582800.8244   23582791.671
        45.0004         40.0004
  -2801823.54247  -2144845.70046  24271720.1174   24271725.2834   24271718.615
        44.0004         40.0004
  -6982266.44848  -5420892.46647  22597482.7204   22597488.1514   22597483.376
        50.0004         46.0004
  -6848858.19547  -5283472.12146  23654926.7434   23654934.3744   23654927.982
        45.0004         40.0004
 -25157173.60549 -19540001.98348  20391988.3594   20391993.0604   20391988.714
        55.0004         51.0004
  -1286686.60147   -989738.08746  24109191.1414   24109199.7194   24109194.014
        43.0004         39.0004
 -16486201.74348 -12788025.55148  21929160.1914   21929163.4604   21929160.697
        52.0004         48.0004
  -1047452.85048   -808846.43747  22594666.3504   22594675.4154   22594666.550
        50.0004         45.0004
 -20596675.36749 -15976687.81148  20426349.9734   20426356.3294   20426349.281
        57.0004         52.0004
 -12493310.05848  -9726845.44448  21726261.9784   21726265.8124   21726261.157
        53.0004         49.0004
 15  1  1  0  0 22.0000000  0 10G25G17G32G01G20G09G23G06G03G31
  -4200333.04047  -3246571.96746  23582883.5024   23582892.6684   23582883.601
        45.0004         40.0004
  -2798970.26047  -2142622.36646  24272263.5514   24272268.6594   24272261.499
        44.0004         40.0004
  -6979166.34748  -5418476.80247  22598072.4254   22598078.9514   22598073.217
        50.0004         46.0004
  -6845147.48147  -5280580.65546  23655632.3474   23655640.0474   23655633.996
        45.0004         40.0004
 -25157881.04149 -19540553.22948  20391853.8204   20391858.3284   20391854.095
        55.0004         51.0004
  -1290395.70947   -992628.29446  24108484.5014   24108493.8414   24108487.755
        43.0004         39.0004
 -16488841.79348 -12790082.72748  21928657.9424   21928660.7214   21928658.435
        52.0004         48.0004
  -1049741.48848   -810629.79547  22594231.4544   22594239.3044   22594231.068
        50.0004         45.0004
 -20595880.32449 -15976068.29748  20426501.1144   20426507.5234   20426500.568
        57.0004         52.0004
 -12492440.44948  -9726167.82548  21726427.3534   21726430.9134   21726426.452
        53.0004         49.0004
 15  1  1  0  0 23.0000000  0 10G25G17G32G01G20G09G23G06G03G31
  -4199848.68047  -3246194.53946  23582976.0054   23582985.0244   23582975.979
        45.0004         40.0004
  -2796116.36247  -2140398.55246  24272806.8754   24272811.7254   24272804.537
        44.0004         40.0004
  -6976065.73648  -5416060.74047  22598663.5214   22598669.3954   22598663.234
        50.0004         46.0004
  -6841436.30347  -5277688.82746  23656339.1634   23656346.5464   23656340.399
        45.0004         40.0004
 -25158587.64549 -19541103.82848  20391719.3744   20391723.9314   20391719.661
        55.0004         51.0004
  -1294104.44047   -995518.20646  24107778.8944   24107787.9854   24107781.665
        43.0004         39.0004
 -16491481.23848 -12792139.43048  21928155.9004   21928158.4044   21928156.227
        52.0004         48.0004
  -1052029.37448   -812412.55947  22593796.9394   22593803.7224   22593795.687
        50.0004         45.0004
 -20595084.46649 -15975448.14748  20426652.5194   20426659.1104   20426651.994
        57.0004         52.0004
 -12491569.94048  -9725489.50648  21726593.2204   21726597.2054   21726592.051
        53.0004         49.0004
 15  1  1  0  0 24.0000000  0 10G25G17G32G01G20G09G23G06G03G31
  -4199363.54147  -3245816.50946  23583068.2154   23583077.4874   23583068.302
        45.0004         40.0004
  -2793262.05747  -2138174.42146  24273349.5964   24273355.4814   24273347.699
        44.0004         40.0004
  -6972964.77948  -5413644.40647  22599252.3614   22599258.6404   22599253.386
        50.0004         45.0004
  -6837724.82947  -5274796.76946  23657045.6054   23657053.5254   23657046.705
        45.0004         40.0004
 -25159293.57149 -19541653.89948  20391584.8134   20391589.5214   20391585.364
        55.0004         51.0004
  -1297812.96447   -998407.95846  24107073.4824   24107082.3904   24107075.677
        43.0004         39.0004
 -16494120.23948 -12794195.78948  21927653.5664   21927656.1914   21927654.077
        52.0004         48.0004
  -1054316.64148   -814194.84347  22593360.9974   22593368.7104   22593360.496
        50.0004         45.0004
 -20594287.96949 -15974827.50048  20426804.1564   20426810.5494   20426803.559
        57.0004         52.0004
 -12490698.67648  -9724810.60048  21726758.6934   21726762.4194   21726757.860
        53.0004         49.0004
 15  1  1  0  0 25.0000000  0 10G25G17G32G01G20G09G23G06G03G31
  -4198877.90947  -3245438.09446  23583160.9654   23583169.5634   23583160.923
        45.0004         40.0004
  -2790407.65747  -2135950.21546  24273892.9694   24273898.6634   24273890.952
        44.0004         40.0004
  -6969863.74548  -5411228.01647  22599842.6234   22599849.2404   22599843.412
        50.0004         46.0004
  -6834013.37847  -5271904.73046  23657751.9924   23657760.3424   23657753.120
        45.0004         40.0004
 -25159999.10049 -19542203.66248  20391450.6434   20391455.2214   20391451.202
        55.0004         51.0004
  -1301521.54347  -1001297.75246  24106368.0414   24106376.8114   24106369.727
        43.0004         39.0004
 -16496759.08448 -12796252.03048  21927151.3364   21927153.5194   21927151.846
        52.0004         48.0004
  -1056603.59748   -815976.88447  22592925.3934   22592934.2984   22592925.363
        50.0004         45.0004
 -20593491.09149 -15974206.55948  20426955.9134   20426962.3014   20426955.168
        57.0004         52.0004
 -12489826.95448  -9724131.33748  21726924.9194   21726928.4454   21726923.789
        53.0004         49.0004
 15  1  1  0  0 26.0000000  0 10G25G17G32G01G20G09G23G06G03G31
  -4198391.49947  -3245059.07046  23583253.7754   23583261.8594   23583253.445
        45.0004         40.0004
  -2787552.83747  -2133725.68146  24274436.1474   24274441.4344   24274434.253
        44.0004         40.0004
  -6966762.36248  -5408811.35747  22600433.3604   22600440.4644   22600433.465
        50.0004         46.0004
  -6830301.64747  -5269012.46946  23658458.5934   23658465.7824   23658459.140
        45.0004         40.0004
 -25160703.95949 -19542752.90348  20391316.6044   20391321.0174   20391317.108
        55.0004         51.0004
  -1305229.92247  -1004187.39046  24105662.3904   24105670.8534   24105663.496
        43.0004         39.0004
 -16499397.48648 -12798307.92248  21926649.3654   21926651.9624   21926649.775
        52.0004         48.0004
  -1058889.95148   -817758.45647  22592491.0854   22592498.0334   22592490.353
        50.0004         45.0004
 -20592693.57149 -15973585.11348  20427107.5874   20427114.1094   20427106.961
        57.0004         52.0004
 -12488954.48348  -9723451.48948  21727090.6524   21727094.5884   21727089.916
        53.0004         49.0004
 15  1  1  0  0 27.0000000  0 10G25G17G32G01G20G09G23G06G03G31
  -4197904.09347  -3244679.27246  23583346.8694   23583354.8084   23583346.231
        45.0004         40.0004
  -2784697.37947  -2131500.65246  24274979.5994   24274985.1114   24274977.372
        44.0004         40.0004
  -6963660.40348  -5406394.24347  22601023.4314   22601029.8524   22601023.518
        50.0004         46.0004
  -6826589.41347  -5266119.81846  23659165.2744   23659172.0354   23659165.318
        45.0004         40.0004
 -25161407.91249 -19543301.43748  20391182.9534   20391187.2914   20391183.197
        55.0004         51.0004
  -1308937.86847  -1007076.69046  24104956.3294   24104965.6474   24104957.275
        43.0004         39.0004
 -16502035.22948 -12800363.30148  21926147.4704   21926150.1994   21926147.836
        52.0004         48.0004
  -1061175.47748   -819539.38747  22592055.8034   22592064.3514   22592055.569
        50.0004         45.0004
 -20591895.16649 -15972962.98148  20427259.6204   20427265.8384   20427258.887
        57.0004         52.0004
 -12488081.05648  -9722770.89548  21727257.2064   21727260.6094   21727256.216
        53.0004         49.0004
 15  1  1  0  0 28.0000000  0 10G25G17G32G01G20G09G23G06G03G31
  -4197416.53647  -3244299.35946  23583438.1874   23583447.6324   23583438.681
        45.0004         40.0004
  -2781842.12547  -2129275.78246  24275522.4314   24275528.6304   24275520.566
        44.0004         40.0004
  -6960558.73848  -5403977.36447  22601613.5154   22601619.9894   22601613.574
        50.0004         46.0004
  -6822877.51447  -5263227.43046  23659870.0254   23659878.8114   23659871.477
        45.0004         40.0004
 -25162111.83149 -19543849.94848  20391048.5594   20391053.0254   20391049.362
        55.0004         51.0004
  -1312646.18247  -1009966.27846  24104250.4964   24104260.4184   24104251.003
        44.0004         39.0004
 -16504673.15848 -12802418.82848  21925645.2904   21925648.3634   21925645.798
        52.0004         48.0004
  -1063461.04448   -821320.35147  22591621.3094   22591628.1964   22591620.801
        50.0004         45.0004
 -20591096.75149 -15972340.84048  20427411.4424   20427418.0464   20427410.858
        57.0004         52.0004
 -12487207.50748  -9722090.20648  21727422.8464   21727427.4824   21727422.646
        53.0004         49.0004
 15  1  1  0  0 29.0000000  0 10G25G17G32G01G20G09G23G06G03G31
  -4196928.63847  -3243919.17646  23583531.3264   23583539.7864   23583531.470
        45.0004         40.0004
  -2778986.89147  -2127050.92746  24276065.9244   24276071.8534   24276063.801
        44.0004         40.0004
  -6957457.15448  -5401560.53947  22602203.2354   22602210.6904   22602203.637
        50.0004         46.0004
  -6819165.74847  -5260335.14746  23660576.0334   23660585.1704   23660577.516
        45.0004         40.0004
 -25162815.49349 -19544398.25448  20390914.7724   20390919.4744   20390915.514
        55.0004         51.0004
  -1316354.72147  -1012856.04346  24103544.9034   24103555.3614   24103544.556
        44.0004         39.0004
 -16507311.07548 -12804474.34348  21925143.6964   21925146.2234   21925143.769
        52.0004         48.0004
  -1065746.42248   -823101.16247  22591185.7374   22591193.8594   22591185.909
        50.0004         45.0004
 -20590298.10149 -15971718.51348  20427563.3284   20427569.8444   20427562.896
        57.0004         52.0004
 -12486333.64448  -9721409.26948  21727589.6824   21727593.3364   21727589.133
        53.0004         49.0004
 15  1  1  0  0 30.0000000  0 10G25G17G32G01G20G09G23G06G03G31
  -4196439.97047  -3243538.39846  23583624.5914   23583632.6904   23583624.297
        45.0004         40.0004
  -2776131.25847  -2124825.76046  24276609.2764   24276615.1194   24276607.093
        44.0004         40.0004
  -6954355.22248  -5399143.45847  22602793.9264   22602800.2054   22602793.698
        50.0004         46.0004
  -6815453.74247  -5257442.67646  23661282.2134   23661291.7224   23661283.510
        45.0004         40.0004
 -25163518.48749 -19544946.04148  20390780.9464   20390785.6154   20390781.695
        55.0004         51.0004
  -1320063.06247  -1015745.64946  24102839.4704   24102849.8044   24102838.563
        44.0004         39.0004
 -16509948.56248 -12806529.52748  21924641.8594   21924644.3924   21924641.805
        52.0004         48.0004
  -1068031.21648   -824881.52047  22590750.2864   22590759.1314   22590751.039
        50.0004         45.0004
 -20589498.81749 -15971095.69548  20427715.4944   20427722.1294   20427715.024
        57.0004         52.0004
 -12485459.04948  -9720727.76448  21727755.8784   21727759.7074   21727755.699
        53.0004         49.0004
 15  1  1  0  0 31.0000000  0 10G25G17G32G01G20G09G23G06G03G31
  -4195950.49147  -3243156.98546  23583717.2314   23583725.6314   23583717.127
        45.0004         40.0004
  -2773275.15947  -2122600.23246  24277151.8844   24277159.2754   24277150.382
        44.0004         40.0004
  -6951252.90448  -5396726.07247  22603384.3524   22603390.9764   22603384.005
        50.0004         45.0004
  -6811741.41547  -5254549.95746  23661988.2654   23661999.1264   23661989.708
        45.0004         40.0004
 -25164220.76049 -19545493.26648  20390647.2744   20390651.8424   20390648.155
        55.0004         51.0004
  -1323771.16447  -1018635.07146  24102134.4964   24102144.4514   24102132.731
        44.0004         39.0004
 -16512585.57548 -12808584.33648  21924140.0414   21924142.8444   21924139.878
        52.0004         48.0004
  -1070315.36748   -826661.37647  22590316.6134   22590324.4924   22590316.276
        50.0004         45.0004
 -20588698.83349 -15970472.33248  20427867.6384   20427874.1394   20427867.213
        57.0004         52.0004
 -12484583.66248  -9720045.64448  21727922.6444   21727926.5124   21727922.386
        53.0004         49.0004
 15  1  1  0  0 32.0000000  0 10G25G17G32G01G20G09G23G06G03G31
  -4195460.22247  -3242774.95746  23583810.0964   23583818.7534   23583810.072
        44.0004         40.0004
  -2770418.66847  -2120374.39646  24277696.1414   24277703.5214   24277693.966
        44.0004         40.0004
  -6948150.24148  -5394308.41047  22603975.3474   22603982.1214   22603974.497
        50.0004         45.0004
  -6808028.78047  -5251657.00046  23662694.6684   23662705.7544   23662695.936
        45.0004         40.0004
 -25164922.35349 -19546039.96148  20390513.9424   20390518.3514   20390514.636
        55.0004         51.0004
  -1327479.01947  -1021524.30046  24101428.6474   24101438.5104   24101426.841
        44.0004         39.0004
 -16515222.12948 -12810638.78748  21923638.4234   21923640.9414   21923638.103
        52.0004         48.0004
  -1072598.90648   -828440.75147  22589881.5144   22589889.5324   22589881.653
        50.0004         45.0004
 -20587898.18549 -15969848.44748  20428020.2394   20428026.6324   20428019.561
        57.0004         52.0004
 -12483707.53448  -9719362.94548  21728089.1884   21728093.2834   21728089.227
        53.0004         49.0004
 15  1  1  0  0 33.0000000  0 10G25G17G32G01G20G09G23G06G03G31
  -4194968.95747  -3242392.14946  23583904.2804   23583912.2574   23583903.323
        44.0004         40.0004
  -2767561.50847  -2118148.04046  24278240.0094   24278247.1114   24278237.718
        44.0004         40.0004
  -6945046.98748  -5391890.29147  22604565.6174   22604571.6644   22604565.089
        50.0004         46.0004
  -6804315.63047  -5248763.64346  23663402.2264   23663412.3954   23663402.300
        45.0004         40.0004
 -25165623.03049 -19546585.94448  20390380.4304   20390384.9924   20390381.321
        55.0004         51.0004
  -1331186.42547  -1024413.17646  24100723.1704   24100733.3224   24100720.835
        44.0004         39.0004
 -16517858.01048 -12812692.71648  21923136.7644   21923139.2714   21923136.516
        52.0004         48.0004
  -1074881.60948   -830219.48547  22589446.4824   22589455.5724   22589447.178
        50.0004         45.0004
 -20587096.65349 -15969223.87848  20428172.8494   20428179.1274   20428172.119
        57.0004         52.0004
 -12482830.41948  -9718679.47848  21728256.3254   21728259.7524   21728256.283
        53.0004         49.0004
 15  1  1  0  0 34.0000000  0 10G25G17G32G01G20G09G23G06G03G31
  -4194476.90147  -3242008.72946  23583997.5454   23584006.1604   23583996.904
        44.0004         40.0004
  -2764703.97447  -2115921.39246  24278784.0404   24278790.7054   24278781.548
        44.0004         40.0004
  -6941943.38848  -5389471.90247  22605155.7914   22605162.0734   22605155.914
        50.0004         46.0004
  -6800602.18947  -5245870.05746  23664108.4924   23664118.7274   23664108.620
        45.0004         40.0004
 -25166323.02449 -19547131.39548  20390247.2444   20390251.8914   20390248.105
        55.0004         51.0004
  -1334893.59947  -1027301.87446  24100017.4674   24100027.8284   24100015.243
        44.0004         39.0004
 -16520493.45248 -12814746.30548  21922635.3744   21922637.9164   21922634.973
        52.0004         48.0004
  -1077163.71548   -831997.74847  22589012.5474   22589020.6244   22589012.751
        50.0004         45.0004
 -20586294.46849 -15968598.79848  20428325.3594   20428331.8634   20428324.776
        57.0004         52.0004
 -12481952.56248  -9717995.43648  21728423.3224   21728426.5864   21728423.474
        53.0004         49.0004
 15  1  1  0  0 35.0000000  0 10G25G17G32G01G20G09G23G06G03G31
  -4193983.47347  -3241624.23846  23584091.7964   23584100.8294   23584090.848
        44.0004         40.0004
  -2761845.38747  -2113693.92346  24279327.7384   24279334.5164   24279325.178
        44.0004         40.0004
  -6938838.84348  -5387052.77447  22605746.3854   22605752.9464   22605747.051
        50.0004         46.0004
  -6796887.89247  -5242975.80646  23664815.5914   23664825.5324   23664815.412
        45.0004         40.0004
 -25167021.73649 -19547675.84348  20390114.5784   20390118.9774   20390115.129
        55.0004         51.0004
  -1338599.97247  -1030189.94846  24099312.7514   24099322.9414   24099310.063
        44.0004         39.0004
 -16523127.85548 -12816799.08148  21922133.4994   21922136.4634   21922133.654
        52.0004         48.0004
  -1079444.61648   -833775.07147  22588578.2014   22588586.6684   22588578.537
        50.0004         45.0004
 -20585491.02749 -15967972.73848  20428478.1664   20428484.5884   20428477.736
        57.0004         52.0004
 -12481073.35948  -9717310.34048  21728590.3514   21728594.2934   21728590.965
        53.0004         49.0004
 15  1  1  0  0 36.0000000  0 10G25G17G32G01G20G09G23G06G03G31
  -4193489.18047  -3241239.07346  23584186.0224   23584194.7104   23584184.766
        44.0004         40.0004
  -2758986.28247  -2111466.05146  24279871.6844   24279878.9274   24279869.012
        44.0004         40.0004
  -6935733.84148  -5384633.28947  22606337.5524   22606344.0194   22606338.222
        50.0004         46.0004
  -6793173.19947  -5240081.25046  23665522.7794   23665532.6394   23665522.369
        45.0004         40.0004
 -25167719.66949 -19548219.68848  20389981.5544   20389985.8754   20389982.389
        55.0004         51.0004
  -1342306.00947  -1033077.76146  24098607.5834   24098617.5244   24098604.848
        44.0004         39.0004
 -16525761.70948 -12818851.43448  21921632.5614   21921634.9374   21921632.501
        52.0004         48.0004
  -1081724.80948   -835551.84447  22588145.0514   22588153.0124   22588144.321
        50.0004         45.0004
 -20584686.83649 -15967346.09848  20428631.2704   20428637.7724   20428630.782
        57.0004         52.0004
 -12480193.31348  -9716624.58948  21728758.2704   21728761.7314   21728758.521
        53.0004         49.0004
 15  1  1  0  0 37.0000000  0 10G25G17G32G01G20G09G23G06G03G31
  -4192994.48747  -3240853.59746  23584279.9684   23584288.5294   23584279.112
        44.0004         40.0004
  -2756127.12847  -2109238.14046  24280416.0774   24280422.9704   24280413.042
        44.0004         40.0004
  -6932628.86748  -5382213.82847  22606928.6614   22606934.1884   22606929.300
        50.0004         45.0004
  -6789458.59347  -5237186.75746  23666229.1494   23666239.7484   23666229.180
        45.0004         40.0004
 -25168417.30249 -19548763.29848  20389848.7944   20389853.2124   20389849.587
        55.0004         51.0004
  -1346012.21147  -1035965.70046  24097902.9204   24097912.7694   24097900.216
        44.0004         39.0004
 -16528395.49848 -12820903.73248  21921131.7854   21921133.8744   21921131.320
        53.0004         48.0004
  -1084004.78548   -837328.44847  22587711.4084   22587718.3734   22587710.247
        50.0004         45.0004
 -20583882.37449 -15966719.24548  20428784.3864   20428790.8684   20428783.843
        57.0004         52.0004
 -12479312.91148  -9715938.56348  21728925.5084   21728929.0974   21728926.108
        53.0004         49.0004
 15  1  1  0  0 38.0000000  0 10G25G17G32G01G20G09G23G06G03G31
  -4192498.63847  -3240467.21746  23584373.8364   23584382.9044   23584373.772
        44.0004         40.0004
  -2753267.20147  -2107009.62746  24280960.4404   24280967.0884   24280957.578
        44.0004         40.0004
  -6929523.18348  -5379793.80847  22607519.8044   22607526.4684   22607520.427
        50.0004         45.0004
  -6785743.36047  -5234291.77846  23666936.7524   23666946.7694   23666936.121
        45.0004         40.0004
 -25169113.88149 -19549306.08348  20389716.3694   20389720.9174   20389716.988
        55.0004         51.0004
  -1349717.84647  -1038853.19746  24097197.5204   24097207.6554   24097195.353
        44.0004         39.0004
 -16531028.47348 -12822955.39548  21920630.2594   21920633.1254   21920630.267
        53.0004         48.0004
  -1086283.78048   -839104.28847  22587276.8014   22587284.9314   22587276.281
        50.0004         45.0004
 -20583076.88049 -15966091.58448  20428937.7144   20428944.1524   20428937.056
        57.0004         52.0004
 -12478431.38348  -9715251.65548  21729093.1254   21729096.7274   21729093.860
        53.0004         49.0004
 15  1  1  0  0 39.0000000  0 10G25G17G32G01G20G09G23G06G03G31
  -4192002.35447  -3240080.49846  23584468.1504   23584477.0564   23584468.152
        44.0004         40.0004
  -2750407.24347  -2104781.09246  24281503.9584   24281511.4894   24281501.703
        44.0004         40.0004
  -6926417.48948  -5377373.79247  22608110.4044   22608116.6514   22608111.371
        50.0004         46.0004
  -6782028.17747  -5231396.83646  23667644.0724   23667654.0254   23667643.499
        45.0004         40.0004
 -25169810.13449 -19549848.61848  20389583.8994   20389588.4484   20389584.388
        55.0004         51.0004
  -1353423.56947  -1041740.76746  24096492.3234   24096502.2614   24096490.445
        44.0004         39.0004
 -16533661.35648 -12825006.98948  21920129.5094   21920131.9724   21920129.371
        53.0004         48.0004
  -1088562.50048   -840879.91647  22586843.3124   22586851.9644   22586842.381
        50.0004         45.0004
 -20582271.08349 -15965463.69248  20429091.0094   20429097.3054   20429090.378
        57.0004         52.0004
 -12477549.46048  -9714564.44348  21729261.5014   21729264.7434   21729261.579
        53.0004         49.0004
 15  1  1  0  0 40.0000000  0 10G25G17G32G01G20G09G23G06G03G31
  -4191505.75147  -3239693.53446  23584563.3734   23584572.1104   23584562.795
        44.0004         40.0004
  -2747547.25747  -2102552.53546  24282048.3384   24282055.4104   24282045.881
        44.0004         40.0004
  -6923311.88548  -5374953.83747  22608701.1314   22608707.8604   22608702.269
        50.0004         45.0004
  -6778313.16847  -5228502.02846  23668351.2454   23668360.3114   23668350.827
        45.0004         40.0004
 -25170506.15149 -19550390.96948  20389451.2024   20389455.8164   20389451.942
        55.0004         51.0004
  -1357129.55547  -1044628.54046  24095787.1334   24095796.5804   24095785.589
        44.0004         39.0004
 -16536294.24548 -12827058.58448  21919627.9794   21919630.9354   21919628.370
        53.0004         48.0004
  -1090841.08748   -842655.43947  22586410.6364   22586417.7054   22586408.428
        50.0004         45.0004
 -20581465.08449 -15964835.63848  20429244.3254   20429250.8114   20429243.699
        57.0004         52.0004
 -12476667.24648  -9713877.00348  21729429.2914   21729432.4604   21729429.244
        53.0004         49.0004
 15  1  1  0  0 41.0000000  0 10G25G17G32G01G20G09G23G06G03G31
  -4191008.40447  -3239305.98846  23584658.3304   23584666.8434   23584657.832
        44.0004         40.0004
  -2744686.93247  -2100323.71346  24282593.0544   24282599.3924   24282590.228
        44.0004         40.0004
  -6920205.98448  -5372533.65547  22609291.7064   22609299.1114   22609293.112
        50.0004         46.0004
  -6774597.91047  -5225607.02946  23669057.4694   23669066.8774   23669057.983
        45.0004         40.0004
 -25171201.51949 -19550932.81448  20389318.8414   20389323.5624   20389319.637
        55.0004         51.0004
  -1360835.34147  -1047516.15946  24095081.7534   24095091.6254   24095080.699
        44.0004         39.0004
 -16538926.72748 -12829109.86648  21919127.1794   21919130.1064   21919127.377
        53.0004         48.0004
  -1093119.10848   -844430.51647  22585976.7124   22585983.6174   22585974.818
        50.0004         45.0004
 -20580658.45849 -15964207.09748  20429397.6444   20429404.3084   20429397.134
        57.0004         52.0004
 -12475784.32648  -9713189.01548  21729596.9094   21729600.8654   21729597.059
        53.0004         49.0004
 15  1  1  0  0 42.0000000  0 10G25G17G32G01G20G09G23G06G03G31
  -4190510.50147  -3238918.00846  23584752.4604   23584760.9514   23584752.530
        44.0004         40.0004
  -2741826.39547  -2098094.72946  24283137.2954   24283143.6064   24283134.580
        44.0004         40.0004
  -6917099.93548  -5370113.35947  22609883.6054   22609889.7024   22609884.016
        50.0004         45.0004
  -6770882.59247  -5222711.97946  23669765.1714   23669773.4534   23669765.187
        45.0004         40.0004
 -25171896.43449 -19551474.30548  20389186.8634   20389191.4534   20389187.411
        55.0004         51.0004
  -1364541.13947  -1050403.78846  24094376.8964   24094386.5314   24094376.050
        44.0004         39.0004
 -16541558.99348 -12831160.98048  21918626.5714   21918628.9024   21918626.397
        53.0004         48.0004
  -1095396.74148   -846205.29247  22585542.4414   22585551.2804   22585541.372
        50.0004         45.0004
 -20579851.40749 -15963578.22848  20429551.5124   20429557.7104   20429550.681
        57.0004         52.0004
 -12474900.88048  -9712500.61548  21729765.5464   21729768.8044   21729764.952
        53.0004         49.0004
 15  1  1  0  0 43.0000000  0 10G25G17G32G01G20G09G23G06G03G31
  -4190012.32447  -3238529.81946  23584847.7424   23584856.6864   23584847.543
        44.0004         40.0004
  -2738966.00247  -2095865.85746  24283681.3234   24283687.7464   24283678.812
        44.0004         40.0004
  -6913994.05048  -5367693.19147  22610474.3814   22610480.9444   22610474.921
        50.0004         46.0004
  -6767167.49647  -5219817.10546  23670471.8234   23670480.7714   23670472.184
        45.0004         40.0004
 -25172591.17249 -19552015.66148  20389054.7824   20389059.1024   20389055.276
        55.0004         51.0004
  -1368247.23447  -1053291.64846  24093671.4864   24093681.2804   24093670.894
        44.0004         39.0004
 -16544191.31148 -12833212.13448  21918125.1464   21918128.1074   21918125.472
        53.0004         48.0004
  -1097674.27248   -847979.99047  22585109.8014   22585117.8314   22585107.775
        50.0004         45.0004
 -20579044.20949 -15962949.24448  20429704.9284   20429711.5334   20429704.244
        57.0004         52.0004
 -12474017.18748  -9711812.02448  21729933.4154   21729936.8704   21729932.921
        53.0004         49.0004
 15  1  1  0  0 44.0000000  0 10G25G17G32G01G20G09G23G06G03G31
  -4189513.58847  -3238141.19246  23584942.8044   23584951.1344   23584942.688
        44.0004         40.0004
  -2736105.35147  -2093636.78246  24284225.4824   24284231.6144   24284223.036
        44.0004         40.0004
  -6910888.02748  -5365272.91947  22611065.8714   22611071.7794   22611065.938
        50.0004         46.0004
  -6763452.32147  -5216922.16846  23671178.5064   23671188.5364   23671179.357
        45.0004         40.0004
 -25173285.43949 -19552556.64648  20388922.2154   20388927.3174   20388923.259
        55.0004         51.0004
  -1371953.28347  -1056179.47246  24092965.7034   24092975.9134   24092965.807
        44.0004         39.0004
 -16546823.39048 -12835263.09748  21917624.4674   21917627.2484   21917624.559
        53.0004         48.0004
  -1099951.40248   -849754.37347  22584676.5654   22584684.6684   22584674.360
        50.0004         45.0004
 -20578236.55849 -15962319.90448  20429858.7104   20429865.1684   20429857.904
        57.0004         52.0004
 -12473132.96848  -9711123.02048  21730101.5404   21730105.2764   21730101.055
        53.0004         49.0004
 15  1  1  0  0 45.0000000  0 10G25G17G32G01G20G09G23G06G03G31
  -4189013.61147  -3237751.59446  23585038.3444   23585045.2984   23585038.140
        44.0004         40.0004
  -2733243.81847  -2091407.01946  24284770.5734   24284776.6004   24284767.841
        44.0004         40.0004
  -6907781.18848  -5362852.00247  22611657.1354   22611662.7544   22611657.318
        50.0004         46.0004
  -6759736.41447  -5214026.66146  23671885.5844   23671895.0604   23671886.428
        45.0004         40.0004
 -25173978.56949 -19553096.74648  20388790.5824   20388795.1974   20388791.395
        55.0004         51.0004
  -1375658.69247  -1059066.79746  24092260.1414   24092270.7264   24092260.594
        44.0004         39.0004
 -16549454.57148 -12837313.36248  21917123.8744   21917126.6084   21917123.743
        53.0004         48.0004
  -1102227.48148   -851527.94047  22584242.8024   22584251.0084   22584241.207
        50.0004         45.0004
 -20577427.80649 -15961689.70548  20430012.6594   20430019.2114   20430011.816
        57.0004         52.0004
 -12472247.53948  -9710433.07548  21730270.0824   21730273.7324   21730269.455
        53.0004         49.0004
 15  1  1  0  0 46.0000000  0 10G25G17G32G01G20G09G23G06G03G31
  -4188512.57447  -3237361.17346  23585133.8324   23585141.6824   23585133.818
        44.0004         40.0004
  -2730381.61647  -2089176.73446  24285314.8984   24285321.5344   24285312.531
        44.0004         40.0004
  -6904673.70748  -5360430.58347  22612247.8424   22612254.4664   22612249.009
        50.0004         46.0004
  -6756019.91447  -5211130.68946  23672592.8114   23672602.1484   23672593.451
        45.0004         40.0004
 -25174670.71449 -19553636.08348  20388658.9084   20388663.5344   20388659.693
        55.0004         51.0004
  -1379363.52747  -1061953.67346  24091555.4324   24091565.2244   24091555.537
        44.0004         39.0004
 -16552085.00048 -12839363.04448  21916623.4004   21916625.9734   21916623.118
        53.0004         48.0004
  -1104502.63648   -853300.79247  22583810.7144   22583818.6354   22583808.173
        50.0004         45.0004
 -20576618.08549 -15961058.75648  20430166.7274   20430173.0624   20430165.897
        57.0004         52.0004
 -12471361.05948  -9709742.31348  21730439.1254   21730442.3124   21730438.103
        53.0004         49.0004
 15  1  1  0  0 47.0000000  0 10G25G17G32G01G20G09G23G06G03G31
  -4188011.01647  -3236970.34746  23585229.0004   23585237.1774   23585229.467
        44.0004         40.0004
  -2727519.24047  -2086946.31746  24285859.2904   24285865.9604   24285857.273
        44.0004         40.0004
  -6901566.14548  -5358009.10247  22612838.8954   22612845.3734   22612840.581
        50.0004         45.0004
  -6752303.40947  -5208234.71346  23673299.9214   23673310.0754   23673300.476
        45.0004         40.0004
 -25175362.45849 -19554175.10448  20388527.0574   20388531.7664   20388527.958
        55.0004         51.0004
  -1383068.46947  -1064840.63546  24090850.5494   24090860.1574   24090850.550
        44.0004         39.0004
 -16554715.26448 -12841412.59548  21916122.4334   21916125.4464   21916122.548
        53.0004         48.0004
  -1106777.46648   -855073.38647  22583377.1144   22583385.0304   22583375.343
        50.0004         45.0004
 -20575807.98649 -15960427.50848  20430320.8694   20430327.2754   20430320.029
        57.0004         52.0004
 -12470474.10948  -9709051.18148  21730607.6084   21730611.1954   21730606.831
        53.0004         49.0004
 15  1  1  0  0 48.0000000  0 10G25G17G32G01G20G09G23G06G03G31
  -4187509.13147  -3236579.26646  23585323.6824   23585331.9344   23585324.967
        44.0004         40.0004
  -2724656.92747  -2084715.94946  24286404.6174   24286411.6194   24286402.201
        44.0004         40.0004
  -6898458.69748  -5355587.71847  22613430.5994   22613437.6304   22613431.976
        50.0004         46.0004
  -6748587.09147  -5205338.88746  23674007.1864   23674017.3184   23674007.604
        45.0004         40.0004
 -25176053.98449 -19554713.95448  20388395.5334   20388400.4204   20388396.307
        55.0004         51.0004
  -1386773.62547  -1067727.76446  24090145.0734   24090154.9584   24090145.284
        44.0004         39.0004
 -16557345.54648 -12843462.16448  21915621.9554   21915624.4694   21915621.987
        53.0004         48.0004
  -1109052.15848   -856845.87147  22582944.4934   22582952.3774   22582942.419
        50.0004         45.0004
 -20574997.69549 -15959796.11448  20430475.1224   20430481.3244   20430474.223
        57.0004         52.0004
 -12469586.86848  -9708359.82548  21730776.4854   21730779.7104   21730775.551
        53.0004         49.0004
 15  1  1  0  0 49.0000000  0 10G25G17G32G01G20G09G23G06G03G31
  -4187006.63247  -3236187.70746  23585419.7954   23585427.3944   23585420.812
        44.0004         40.0004
  -2721794.31147  -2082485.34546  24286948.8664   24286956.9334   24286946.928
        44.0004         40.0004
  -6895351.03748  -5353166.16247  22614022.5714   22614028.2994   22614023.375
        50.0004         45.0004
  -6744870.63047  -5202442.94846  23674714.0514   23674723.7364   23674714.565
        45.0004         40.0004
 -25176744.97549 -19555252.38948  20388264.0064   20388268.8514   20388264.841
        55.0004         51.0004
